,provname,id,distname,year,area,centroid_lon,centroid_lat
0,HaNoi,1.0,BaDinh,2010,9281584.520744419,105.82643488035444,21.03605364283048
1,HaNoi,3.0,TayHo,2010,26955938.41579715,105.81993949831909,21.070878933888892
2,HaNoi,2.0,HoanKiem,2010,5167693.507109101,105.85369894061861,21.028804252078125
3,HaNoi,4.0,LongBien,2010,59554119.109820314,105.8942125422901,21.041859500724712
4,HaNoi,7.0,HaiBaTrung,2010,9698945.583393607,105.85781374368284,21.005504110294456
5,HaNoi,8.0,HoangMai,2010,40064008.77363807,105.8632570205197,20.974371010489197
6,HaNoi,6.0,DongDa,2010,10041584.330995208,105.8251997474931,21.01561331362957
7,HaNoi,9.0,ThanhXuan,2010,9254652.865492543,105.81549930195555,20.994797732619844
8,HaNoi,5.0,CauGiay,2010,12279755.545633053,105.79173437895129,21.0307224082036
9,HaNoi,16.0,SocSon,2010,304967112.8663739,105.83005362683426,21.272708287568364
10,HaNoi,17.0,DongAnh,2010,185680459.07879832,105.84020069165476,21.136775273986643
11,HaNoi,18.0,GiaLam,2010,117252526.30682671,105.9505516740597,21.029026970261942
12,HaNoi,19.0,TuLiem,2010,,,
13,HaNoi,20.0,ThanhTri,2010,63297180.364161894,105.84107734033148,20.932688359373618
14,HaiPhong,303.0,HongBang,2010,14971654.794163713,106.64800706136907,20.872142302354465
15,HaiPhong,304.0,NgoQuyen,2010,10975568.682261912,106.70101354985748,20.857040617063234
16,HaiPhong,306.0,HaiAn,2010,82500591.15279256,106.75672896673792,20.82219700193571
17,HaiPhong,305.0,LeChan,2010,11767891.208960498,106.67904812044219,20.835921643803747
18,HaiPhong,307.0,KienAn,2010,29369179.39104146,106.63909128987342,20.804427512031975
19,HaiPhong,308.0,DoSon,2010,78625.64433992795,106.81559657577053,20.66738704853194
20,HaiPhong,309.0,DuongKinh,2010,46340646.51372934,106.71362880461831,20.78153544953365
21,HaiPhong,311.0,ThuyNguyen,2010,261625241.0296797,106.67550305263474,20.947433276249726
22,HaiPhong,312.0,AnDuong,2010,103820243.21946557,106.59147210458319,20.88048008947507
23,HaiPhong,313.0,AnLao,2010,118353350.95119171,106.561071143702,20.80306973309113
24,HaiPhong,314.0,KienThuy,2010,104363291.9405128,106.67312914397674,20.73393402870382
25,HaiPhong,315.0,TienLang,2010,186395852.18744147,106.595197565991,20.695568298661904
26,HaiPhong,316.0,VinhBao,2010,182883226.1825325,106.4941585946526,20.67462757492043
27,VinhPhuc,243.0,VinhYen,2010,50863061.57656301,105.59629045418514,21.305782963663702
28,VinhPhuc,244.0,PhucYen,2010,118077932.01699454,105.72960472186604,21.322392819726318
29,VinhPhuc,246.0,LapThach,2010,172321628.7631255,105.47817219534593,21.421865779162214
30,VinhPhuc,253.0,SongLo,2010,150266395.80049387,105.39639816272586,21.43928086758526
31,VinhPhuc,248.0,TamDao,2010,234774546.21625116,105.59330275485861,21.460980375023507
32,VinhPhuc,247.0,TamDuong,2010,107967109.8744071,105.55442045093794,21.365327064529048
33,VinhPhuc,249.0,BinhXuyen,2010,148407855.45978022,105.66598568907571,21.31954345569419
34,VinhPhuc,252.0,VinhTuong,2010,141250141.26170963,105.49863429103927,21.242365416069163
35,VinhPhuc,251.0,YenLac,2010,105823435.58373427,105.57608706170352,21.220377166598176
36,HaNoi,250.0,MeLinh,2010,141675471.29555374,105.70616517707252,21.18340027983824
37,HaNoi,268.0,HaDong,2010,48777917.10910973,105.75697760148496,20.95363535109767
38,HaNoi,269.0,SonTay,2010,117481328.08262183,105.47962741380881,21.09686456638663
39,HaNoi,271.0,BaVi,2010,420084036.6839357,105.3829096760506,21.14122866281319
40,HaNoi,272.0,PhucTho,2010,119092939.7741028,105.58364926452899,21.11708540853383
41,HaNoi,273.0,DanPhuong,2010,78065737.51763983,105.67684845202395,21.113834991172347
42,HaNoi,276.0,ThachThat,2010,185908646.6710156,105.53081744912673,21.018858778391433
43,HaNoi,274.0,HoaiDuc,2010,84997914.46034466,105.69927684721273,21.02408870677492
44,HaNoi,275.0,QuocOai,2010,150860244.45047832,105.59792335216578,20.96765245882345
45,HaNoi,277.0,ChuongMy,2010,238225653.14486453,105.66045376815899,20.8771436718832
46,HaNoi,278.0,ThanhOai,2010,124535471.21774635,105.78103624927847,20.855892983479677
47,HaNoi,279.0,ThuongTin,2010,130327634.48715837,105.87504664753078,20.84484816134543
48,HaNoi,282.0,MyDuc,2010,225233484.70337525,105.7203975464489,20.686921413750284
49,HaNoi,281.0,UngHoa,2010,187994937.47136393,105.79929147586064,20.712099472442883
50,HaNoi,280.0,PhuXuyen,2010,172797512.16642687,105.90094282918459,20.73576482389806
51,BacNinh,256.0,BacNinh,2010,82518871.73365028,106.07411651808428,21.170586564426582
52,BacNinh,258.0,YenPhong,2010,97069735.03410126,105.97358846948903,21.20802421682677
53,BacNinh,259.0,QueVo,2010,153945109.03247556,106.1787615584677,21.14087587162313
54,BacNinh,260.0,TienDu,2010,96318934.92138536,106.03286061519819,21.114982459494087
55,BacNinh,261.0,TuSon,2010,60588335.53038195,105.95949091644806,21.12653072544707
56,BacNinh,262.0,ThuanThanh,2010,117379522.15709823,106.07648388617717,21.03719980196676
57,BacNinh,264.0,LuongTai,2010,105397843.26144978,106.22603931750065,21.022606309457036
58,BacNinh,263.0,GiaBinh,2010,107664775.91709293,106.20879746983556,21.07527255262111
59,HaiDuong,288.0,HaiDuong,2010,72789127.9559933,106.32824214441953,20.93972030548812
60,HaiDuong,290.0,ChiLinh,2010,282966527.86234874,106.40088304084581,21.13441296219918
61,HaiDuong,291.0,NamSach,2010,110818403.34709932,106.33686509469585,21.014719188041273
62,HaiDuong,294.0,ThanhHa,2010,159473379.713704,106.43218491707036,20.89504632917313
63,HaiDuong,292.0,KinhMon,2010,165975930.88106266,106.50838561453497,21.01478965784674
64,HaiDuong,293.0,KimThanh,2010,114727834.89743575,106.4887371060135,20.93597364370658
65,HaiDuong,297.0,GiaLoc,2010,113961633.66988616,106.28855539932347,20.850664295661996
66,HaiDuong,298.0,TuKy,2010,172446805.2744599,106.40715232808847,20.808573788119453
67,HaiDuong,295.0,CamGiang,2010,109884489.68725255,106.21509282837033,20.954606376989513
68,HaiDuong,296.0,BinhGiang,2010,106324665.3034866,106.188521668947,20.873684416652573
69,HaiDuong,300.0,ThanhMien,2010,124139317.78373629,106.21595089709885,20.780445405487708
70,HaiDuong,299.0,NinhGiang,2010,136324058.4844398,106.33410008616022,20.747530745510662
71,HungYen,323.0,HungYen,2010,70456876.29340322,106.06398999123483,20.657772173279977
72,HungYen,325.0,VanLam,2010,74769731.85359813,106.04267558492931,20.97778377323897
73,HungYen,328.0,MyHao,2010,79183353.52247298,106.09989002376749,20.93101165633819
74,HungYen,327.0,YenMy,2010,92097335.0793888,106.0276818908002,20.891456058341024
75,HungYen,326.0,VanGiang,2010,72203011.67662974,105.94892486654358,20.93246824177382
76,HungYen,330.0,KhoaiChau,2010,130400858.7401075,105.97303523575417,20.825105970266232
77,HungYen,329.0,AnThi,2010,129149714.81948113,106.1030370151928,20.813289874461084
78,HungYen,331.0,KimDong,2010,104865499.58549653,106.03274460489449,20.746213102563477
79,HungYen,333.0,PhuCu,2010,94642378.82603396,106.19071566116087,20.71356945636416
80,HungYen,332.0,TienLu,2010,78631682.34647402,106.13059158804735,20.683371175442307
81,HaNam,347.0,PhuLy,2010,87398580.6918187,105.93238207982746,20.545806238055015
82,HaNam,349.0,DuyTien,2010,122561179.96923617,105.97194746567881,20.637453832441206
83,HaNam,350.0,KimBang,2010,176440069.28525415,105.8468950538849,20.573067209611057
84,HaNam,353.0,LyNhan,2010,166662177.52462342,106.0913907997306,20.558777663440356
85,HaNam,351.0,ThanhLiem,2010,164708014.27273506,105.9195104783062,20.453750445872206
86,HaNam,352.0,BinhLuc,2010,143699970.39501238,106.03756892956591,20.491743288062104
87,NamDinh,356.0,NamDinh,2010,263443.15769538184,106.20861138768946,20.38893625443008
88,NamDinh,359.0,VuBan,2010,152994247.00894767,106.09584499700125,20.374479968309753
89,NamDinh,358.0,MyLoc,2010,74430163.40397581,106.13461003051637,20.456961084556372
90,NamDinh,360.0,YYen,2010,245699900.93482164,106.02433314748419,20.32204637959257
91,NamDinh,362.0,NamTruc,2010,164690014.7288295,106.21239832067583,20.339063065588252
92,NamDinh,363.0,TrucNinh,2010,143181891.42181456,106.24784455530425,20.247176753616607
93,NamDinh,364.0,XuanTruong,2010,115962278.75910413,106.35476399336234,20.301795857060657
94,NamDinh,365.0,GiaoThuy,2010,209803529.22639543,106.46895025328185,20.249924120156308
95,NamDinh,361.0,NghiaHung,2010,204489659.65162537,106.15646938544725,20.1069305516613
96,NamDinh,366.0,HaiHau,2010,227931613.00702637,106.26925663358296,20.149979190371802
97,ThaiBinh,336.0,ThaiBinh,2010,68043659.53199793,106.34734612081833,20.454029325162576
98,ThaiBinh,338.0,QuynhPhu,2010,210114622.15094683,106.36340309442718,20.64966007053206
99,ThaiBinh,339.0,HungHa,2010,213880787.1805209,106.20952853043491,20.5977502998766
100,ThaiBinh,341.0,ThaiThuy,2010,282662437.7598334,106.53003715496337,20.545160734097756
101,ThaiBinh,340.0,DongHung,2010,199390703.39549923,106.34888343267284,20.543521218685868
102,ThaiBinh,344.0,VuThu,2010,196849093.04353398,106.27685546835016,20.434362570093143
103,ThaiBinh,343.0,KienXuong,2010,201741144.99736357,106.42892883136098,20.39805280634722
104,ThaiBinh,342.0,TienHai,2010,235949646.4460042,106.54101661185987,20.370896583438245
105,NinhBinh,369.0,NinhBinh,2010,46780755.02127601,105.97190369223124,20.24648641813665
106,NinhBinh,370.0,TamDiep,2010,104552180.30890377,105.8917477538039,20.156536215173467
107,NinhBinh,372.0,NhoQuan,2010,451157336.82138807,105.74401603383693,20.29116017892386
108,NinhBinh,373.0,GiaVien,2010,176752051.81436646,105.86187462952093,20.34160677200454
109,NinhBinh,374.0,HoaLu,2010,102871163.90109423,105.928428709532,20.253786330990266
110,NinhBinh,377.0,YenMo,2010,148755415.36734587,105.99584193459404,20.128992227211555
111,NinhBinh,375.0,YenKhanh,2010,142433467.2171931,106.08767108800417,20.189610198276377
112,NinhBinh,376.0,KimSon,2010,169657869.97888896,106.08948125319257,20.057353946548616
113,HaGiang,24.0,HaGiang,2010,134686869.84923053,104.9671590287475,22.820075391954123
114,HaGiang,26.0,DongVan,2010,453936035.030289,105.26902866366358,23.236512007560407
115,HaGiang,27.0,MeoVac,2010,561165336.1835634,105.42824105059306,23.13728456872518
116,HaGiang,28.0,YenMinh,2010,784299415.5955331,105.19252481128515,23.058943942222584
117,HaGiang,29.0,QuanBa,2010,532047233.9431775,104.97061421858675,23.063722756285465
118,HaGiang,31.0,BacMe,2010,846016133.2449626,105.2868488600304,22.750416946311038
119,HaGiang,32.0,HoangSuPhi,2010,633333722.4045995,104.68683147204898,22.69837334308427
120,HaGiang,30.0,ViXuyen,2010,1500197814.3824778,104.96398376399851,22.759230878049582
121,HaGiang,33.0,XinMan,2010,582517263.0534703,104.50934805886173,22.635328291344507
122,HaGiang,34.0,BacQuang,2010,1093608751.6594913,104.90525203537,22.400814963409587
123,CaoBang,40.0,CaoBang,2010,108180105.07067162,106.25717259909051,22.6537188489249
124,CaoBang,43.0,BaoLac,2010,917188873.0581542,105.71236831994877,22.892618473418928
125,CaoBang,42.0,BaoLam,2010,912822770.4253982,105.49012732249021,22.866806042894364
126,CaoBang,45.0,HaQuang,2010,451668991.89524,106.11432220277872,22.907609123296524
127,CaoBang,44.0,ThongNong,2010,358115167.1504985,105.94758625255493,22.819065320862478
128,CaoBang,46.0,TraLinh,2010,252708837.50685805,106.3250454582741,22.819974954341987
129,CaoBang,47.0,TrungKhanh,2010,466764617.49460334,106.55548166854035,22.833957468240726
130,CaoBang,52.0,NguyenBinh,2010,838193680.9716434,105.93189437573845,22.630238358712173
131,CaoBang,51.0,HoaAn,2010,605715634.12375,106.19614538509242,22.698757224761707
132,CaoBang,49.0,QuangUyen,2010,384293115.51316667,106.44209610355931,22.675418264469528
133,CaoBang,48.0,HaLang,2010,458674104.4432074,106.68329874333249,22.71274364632277
134,CaoBang,53.0,ThachAn,2010,688575053.0341438,106.32401749651159,22.470232079326262
135,LaoCai,80.0,LaoCai,2010,226306883.33865124,103.98026713143369,22.411798510876817
136,LaoCai,83.0,MuongKhuong,2010,553108375.4690212,104.13374630095707,22.67898017021898
137,LaoCai,82.0,BatXat,2010,1052163131.7263879,103.71744944796635,22.56649820047716
138,LaoCai,84.0,SiMaCai,2010,231734003.4358737,104.26536147018345,22.6678209805015
139,LaoCai,85.0,BacHa,2010,685138475.0190117,104.3212534702086,22.498627665080953
140,LaoCai,86.0,BaoThang,2010,680376143.092266,104.13884038807275,22.373857704207413
141,LaoCai,88.0,SaPa,2010,680649259.2062479,103.91011243218163,22.292742359813477
142,LaoCai,87.0,BaoYen,2010,825535456.3135096,104.43951212141712,22.27337069028397
143,LaoCai,89.0,VanBan,2010,1421242877.5748599,104.18833065478047,22.052422294673676
144,BacKan,58.0,BacKan,2010,137175740.5011722,105.84665665170775,22.134105125933548
145,BacKan,61.0,BaBe,2010,683178759.9420328,105.74052435966934,22.40647157878176
146,BacKan,60.0,PacNam,2010,476827643.3724658,105.66714190958157,22.604070035611155
147,BacKan,62.0,NganSon,2010,645513518.395759,106.00247728417764,22.419559496674797
148,BacKan,64.0,ChoDon,2010,911226401.291994,105.57411545752342,22.18728200107852
149,BacKan,66.0,NaRi,2010,853448221.782647,106.0906338907229,22.165404311618772
150,BacKan,63.0,BachThong,2010,546450307.6096871,105.84558935156448,22.205013733868842
151,BacKan,65.0,ChoMoi,2010,605241331.1189243,105.84969661389538,21.983320986783422
152,LangSon,178.0,LangSon,2010,78961627.21351284,106.74329994369212,21.849799599811515
153,LangSon,180.0,TrangDinh,2010,1016245072.3286823,106.4478752405651,22.29342484386777
154,LangSon,182.0,VanLang,2010,564712595.9358767,106.58463326455454,22.056140109199333
155,LangSon,181.0,BinhGia,2010,1093288998.2913034,106.30851527866238,22.056917448724896
156,LangSon,185.0,BacSon,2010,699509437.0057136,106.26603120344554,21.82625889386335
157,LangSon,184.0,VanQuan,2010,548544299.173677,106.53458618057653,21.838828308690168
158,LangSon,183.0,CaoLoc,2010,554327880.7114584,106.84100497185099,21.899816829855457
159,LangSon,188.0,LocBinh,2010,985369852.0624975,106.94206417942586,21.688311245264714
160,LangSon,187.0,ChiLang,2010,703846667.6280153,106.61690360320516,21.668915134165427
161,LangSon,189.0,DinhLap,2010,1188177841.4994664,107.13431107894398,21.5363965464516
162,LangSon,186.0,HuuLung,2010,807482467.8107176,106.3407374804828,21.5609632389204
163,TuyenQuang,70.0,TuyenQuang,2010,119165685.13722543,105.2263754121395,21.78167159507218
164,TuyenQuang,72.0,NaHang,2010,864974893.1500037,105.43228661775723,22.445181081743886
165,TuyenQuang,73.0,ChiemHoa,2010,1274379788.199343,105.27056957085954,22.173931385983813
166,TuyenQuang,74.0,HamYen,2010,900558985.8721138,105.01689513958709,22.100700404671183
167,TuyenQuang,75.0,YenSon,2010,1131899410.0601072,105.28861376015031,21.879899176771218
168,TuyenQuang,76.0,SonDuong,2010,786473389.8071645,105.38817208333752,21.65417188839344
169,YenBai,132.0,YenBai,2010,107504198.49584228,104.89470133505834,21.707757744461748
170,YenBai,133.0,NghiaLo,2010,30464653.281095047,104.49349163108558,21.595297757894826
171,YenBai,135.0,LucYen,2010,808238675.3281912,104.721575881091,22.09824721901529
172,YenBai,136.0,VanYen,2010,1395519237.9745238,104.55231763749897,21.907290546172202
173,YenBai,137.0,MuCangChai,2010,1196992489.7006052,104.12713344686433,21.795366082202595
174,YenBai,138.0,TranYen,2010,627548500.4687473,104.78929861973074,21.678250294534898
175,YenBai,141.0,YenBinh,2010,772802387.6369236,104.94385001883398,21.865088892544986
176,YenBai,140.0,VanChan,2010,1200523997.9188843,104.62148630426239,21.565743273101564
177,YenBai,139.0,TramTau,2010,742730858.9077449,104.43907543091413,21.499422798953727
178,ThaiNguyen,164.0,ThaiNguyen,2010,222709141.24764362,105.8132563905151,21.578977871818612
179,ThaiNguyen,165.0,SongCong,2010,97421904.12886973,105.83234865666054,21.49305020508884
180,ThaiNguyen,167.0,DinhHoa,2010,512779549.41650707,105.62967256804951,21.900535816678524
181,ThaiNguyen,170.0,VoNhai,2010,839107182.4893018,106.04008947268308,21.77873053621415
182,ThaiNguyen,168.0,PhuLuong,2010,352999953.4684364,105.72612855518065,21.770322089546383
183,ThaiNguyen,169.0,DongHy,2010,429381967.51775455,105.91387303633888,21.67572699287949
184,ThaiNguyen,171.0,DaiTu,2010,566009482.7087312,105.6181299135974,21.623835017755344
185,ThaiNguyen,173.0,PhuBinh,2010,240769838.65806237,105.9696025145033,21.487580736390264
186,ThaiNguyen,172.0,PhoYen,2010,259130273.4653671,105.81123164043059,21.434448530330993
187,PhuTho,227.0,VietTri,2010,115966343.0523088,105.37442257874964,21.332327106698052
188,PhuTho,228.0,PhuTho,2010,64980686.10882071,105.23498968535978,21.417782209790428
189,PhuTho,230.0,DoanHung,2010,302729657.9858654,105.15351766973168,21.61829749804215
190,PhuTho,231.0,HaHoa,2010,342428264.4283491,104.9996538746932,21.57342352587492
191,PhuTho,232.0,ThanhBa,2010,195435040.33559304,105.15938631563729,21.46915525609406
192,PhuTho,233.0,PhuNinh,2010,156983671.5524588,105.30286050001955,21.456056487167398
193,PhuTho,237.0,LamThao,2010,99482388.90747644,105.30188232725443,21.31749898210056
194,PhuTho,235.0,CamKhe,2010,232553766.94917345,105.09398468650188,21.40232600873371
195,PhuTho,234.0,YenLap,2010,437759439.0285063,105.00728017791532,21.361770099773928
196,PhuTho,236.0,TamNong,2010,153900989.60230783,105.23909854720677,21.290323508113953
197,PhuTho,239.0,ThanhThuy,2010,124485195.87230083,105.28357236537467,21.141281024458134
198,PhuTho,238.0,ThanhSon,2010,620131970.818506,105.18953281385173,21.065098156097587
199,PhuTho,240.0,TanSon,2010,687461074.1275388,104.97597592577547,21.186375169552882
200,BacGiang,213.0,BacGiang,2010,66697830.59032095,106.19658681693883,21.274519297798047
201,BacGiang,215.0,YenThe,2010,306263984.868076,106.1342426067358,21.519303222583382
202,BacGiang,216.0,TanYen,2010,208025019.9837829,106.10327319169565,21.386313638871776
203,BacGiang,219.0,LucNgan,2010,1028830924.124074,106.64072080848773,21.43712941522374
204,BacGiang,223.0,HiepHoa,2010,206261145.6159268,105.96767349321617,21.324527274292674
205,BacGiang,217.0,LangGiang,2010,243978343.2060645,106.25353904032329,21.375256660431305
206,BacGiang,220.0,SonDong,2010,860729090.3053541,106.85389384972879,21.309589155309958
207,BacGiang,218.0,LucNam,2010,609154449.7899163,106.46399065283225,21.282232617351188
208,BacGiang,222.0,VietYen,2010,171139578.11357874,106.09031514021476,21.27326848956849
209,BacGiang,221.0,YenDung,2010,191846094.24798247,106.2525467278388,21.208521693772635
210,QuangNinh,193.0,HaLong,2010,230.3984274638581,106.95279999995289,20.91886666669054
211,QuangNinh,195.0,CamPha,2010,152421.03192717925,107.21480310570435,20.950867200002776
212,QuangNinh,196.0,UongBi,2010,254935649.35951754,106.7654809496196,21.074583230007384
213,QuangNinh,194.0,MongCai,2010,41187073.661266245,107.91769153599263,21.373895425638754
214,QuangNinh,198.0,BinhLieu,2010,471862267.6433272,107.44082713423401,21.547078617164065
215,QuangNinh,201.0,HaiHa,2010,2351630.0309346113,107.7671163426291,21.29110608649422
216,QuangNinh,200.0,DamHa,2010,87039.24612470425,107.61573640004273,21.229060625674983
217,QuangNinh,199.0,TienYen,2010,653312106.5340052,107.37231073859523,21.371312731796742
218,QuangNinh,203.0,VanDon,2010,98363.37427707537,107.37724014996022,20.750577986585125
219,QuangNinh,204.0,HoanhBo,2010,843496013.9666951,107.0351717243274,21.111569391341103
220,QuangNinh,205.0,DongTrieu,2010,395848575.4691037,106.58643612163053,21.11155386629391
221,QuangNinh,206.0,YenHung,2010,,,
222,LaiChau,107.0,MuongTe,2010,2679026582.1206656,102.64778381592384,22.469308909684433
223,LaiChau,109.0,PhongTho,2010,1027068731.1616101,103.3641096356093,22.591322564080517
224,LaiChau,106.0,TamDuong,2010,683445584.7181817,103.59804631604148,22.338317946635335
225,LaiChau,105.0,LaiChau,2010,70318250.52453685,103.4496753212419,22.39218582798374
226,LaiChau,108.0,SinHo,2010,1519764451.0647154,103.33286185396048,22.257664917506293
227,LaiChau,111.0,TanUyen,2010,897990142.3319323,103.73243600133688,22.121956097833845
228,LaiChau,110.0,ThanUyen,2010,790738580.5324279,103.83807734153947,21.89331565387127
229,DienBien,94.0,DienBienPhu,2010,63960156.62095306,103.04495825854886,21.4057573221222
230,DienBien,95.0,MuongLay,2010,116000243.51740652,103.13070820930818,22.032610852182756
231,DienBien,96.0,MuongNhe,2010,1556776226.7672622,102.45242592871769,22.234249392250153
232,DienBien,98.0,TuaChua,2010,680385965.3557342,103.3718624344764,21.966555230724396
233,DienBien,97.0,MuongCha,2010,1192011036.8587866,103.12339414903009,21.835570571972394
234,DienBien,99.0,TuanGiao,2010,1134779252.7251287,103.396266821806,21.66994141371769
235,DienBien,100.0,DienBien,2010,1623897966.5440872,103.05723185279977,21.25103880629814
236,DienBien,101.0,DienBienDong,2010,1198867099.1603656,103.25907349775599,21.241302458177785
237,DienBien,102.0,MuongAng,2010,444751550.0757224,103.25394788448324,21.517788645157445
238,SonLa,116.0,SonLa,2010,323155463.63605493,103.90809007724731,21.341900420259062
239,SonLa,118.0,QuynhNhai,2010,1057314404.7795506,103.65014081388563,21.77153965892536
240,SonLa,120.0,MuongLa,2010,1423848857.8788772,104.0703000433941,21.539164112666413
241,SonLa,119.0,ThuanChau,2010,1533547268.8252265,103.65442636020754,21.41912665881399
242,SonLa,121.0,BacYen,2010,1096386628.0702803,104.38952654904294,21.246782116405694
243,SonLa,122.0,PhuYen,2010,1232732223.632673,104.68945242389037,21.205087070070686
244,SonLa,125.0,MaiSon,2010,1425638593.202856,104.01714609417422,21.169635656929444
245,SonLa,126.0,SongMa,2010,1643319741.2722535,103.69356881097836,21.072365832778036
246,SonLa,124.0,YenChau,2010,853475697.5175414,104.32916016905197,20.99540417131712
247,SonLa,123.0,MocChau,2010,1076459514.4418802,104.62092732812576,20.881089254084845
248,HoaBinh,148.0,HoaBinh,2010,144318990.5680303,105.33371555484747,20.83265962361357
249,HoaBinh,150.0,DaBac,2010,778734533.2961084,105.09369235970372,20.909199378839702
250,HoaBinh,156.0,MaiChau,2010,559841538.2623228,105.01440646185135,20.691205462856317
251,HoaBinh,151.0,KySon,2010,205438427.2542183,105.39411471027591,20.919785394013168
252,HoaBinh,152.0,LuongSon,2010,362683092.26562995,105.56282532448805,20.800054916943765
253,HoaBinh,154.0,CaoPhong,2010,255014120.96766582,105.31996049871523,20.6975944904669
254,HoaBinh,153.0,KimBoi,2010,550704117.0719961,105.51657701669876,20.678241736747292
255,HoaBinh,159.0,LacThuy,2010,311176885.91508794,105.73331607209317,20.50346049376188
256,HoaBinh,155.0,TanLac,2010,532638182.16595846,105.23589250776078,20.605409723412254
257,HoaBinh,157.0,LacSon,2010,587292936.5643071,105.44106418844734,20.483547904022416
258,HoaBinh,158.0,YenThuy,2010,287558479.80445105,105.62693738327717,20.421920830128617
259,ThanhHoa,380.0,ThanhHoa,2010,146539272.5715206,105.78784872513677,19.806321788847544
260,ThanhHoa,381.0,BimSon,2010,63612347.2997425,105.88083628843212,20.085785921150524
261,ThanhHoa,382.0,SamSon,2010,44630036.19622977,105.87697207424341,19.745187360113956
262,ThanhHoa,385.0,QuanHoa,2010,993341845.8640279,104.9466523387375,20.465515312599514
263,ThanhHoa,387.0,QuanSon,2010,931163633.5631979,104.84588430749342,20.27104738120299
264,ThanhHoa,386.0,BaThuoc,2010,774915214.5706183,105.23202499874436,20.355479427313416
265,ThanhHoa,390.0,CamThuy,2010,424886124.06955934,105.46150549198956,20.199299425958298
266,ThanhHoa,391.0,ThachThanh,2010,558643624.3273724,105.62195479609115,20.210902592102684
267,ThanhHoa,389.0,NgocLac,2010,493643556.24263275,105.37114342429396,20.06136741757206
268,ThanhHoa,396.0,ThuongXuan,2010,1107305652.5515282,105.20351242921332,19.8996319705052
269,ThanhHoa,402.0,NhuXuan,2010,713902569.3477881,105.37117068255574,19.616859369707964
270,ThanhHoa,403.0,NhuThanh,2010,598890783.1501001,105.55908324112673,19.585734944016004
271,ThanhHoa,393.0,VinhLoc,2010,156896340.97125778,105.6640661727047,20.04622660838933
272,ThanhHoa,392.0,HaTrung,2010,227521350.21976697,105.82561679241795,20.03809018674333
273,ThanhHoa,401.0,NgaSon,2010,151732140.94587883,105.987193988314,20.013219037719804
274,ThanhHoa,394.0,YenDinh,2010,234601264.1722661,105.60494477960997,20.000062975065937
275,ThanhHoa,395.0,ThoXuan,2010,283411867.56065506,105.4819551804148,19.922303627744466
276,ThanhHoa,400.0,HauLoc,2010,139270607.61992756,105.88842294960573,19.935492456540867
277,ThanhHoa,398.0,ThieuHoa,2010,159229265.1079891,105.67409928099075,19.898361870651243
278,ThanhHoa,399.0,HoangHoa,2010,201073261.46829864,105.85912336600407,19.857119364470034
279,ThanhHoa,405.0,DongSon,2010,82338990.85300145,105.70458623740657,19.799061151885763
280,ThanhHoa,397.0,TrieuSon,2010,289212851.5395775,105.57191675852381,19.809806555279962
281,ThanhHoa,406.0,QuangXuong,2010,176118324.72330183,105.78171165113731,19.679745999624878
282,ThanhHoa,404.0,NongCong,2010,284379182.0344395,105.67629345582151,19.6180808570182
283,ThanhHoa,407.0,TinhGia,2010,7847.751130298915,105.90936666789862,19.31923333407703
284,NgheAn,412.0,Vinh,2010,105287632.15035215,105.68658690440172,18.697766657061877
285,NgheAn,413.0,CuaLo,2010,25051387.024363264,105.7255751581472,18.788358322781928
286,NgheAn,415.0,QuePhong,2010,1882249339.7277176,104.89472962882063,19.705649021625792
287,NgheAn,416.0,QuyChau,2010,1057101632.1712383,105.08177793200753,19.54020726385515
288,NgheAn,417.0,KySon,2010,2087383277.5421114,104.21133735955048,19.432147009260056
289,NgheAn,420.0,QuyHop,2010,942200175.1081823,105.15596792256792,19.32243339207484
290,NgheAn,419.0,NghiaDan,2010,612158311.5402625,105.42504369024884,19.357131459155195
291,NgheAn,418.0,TuongDuong,2010,2805118130.882923,104.56731525340581,19.30366536660226
292,NgheAn,421.0,QuynhLuu,2010,443786222.0682744,105.60442845234975,19.20853547596648
293,NgheAn,423.0,TanKy,2010,729241985.7058605,105.21796563042096,19.111591463152102
294,NgheAn,422.0,ConCuong,2010,1742240227.9039574,104.81868781287568,19.023608524656847
295,NgheAn,426.0,YenThanh,2010,551061142.8277907,105.44159761982844,19.02296593973264
296,NgheAn,425.0,DienChau,2010,302988885.4790185,105.57565905342317,19.001471456005312
297,NgheAn,424.0,AnhSon,2010,599663884.5152328,105.05796196823107,18.950009250359166
298,NgheAn,427.0,DoLuong,2010,353232714.7574099,105.34446666271597,18.89761811089111
299,NgheAn,428.0,ThanhChuong,2010,1121691545.288744,105.23936450322803,18.739551239104383
300,NgheAn,429.0,NghiLoc,2010,347885268.7112989,105.60405842015048,18.811307644218914
301,NgheAn,430.0,NamDan,2010,292306883.5390808,105.52140513235612,18.68005417588533
302,NgheAn,431.0,HungNguyen,2010,157912113.14417556,105.62279829740955,18.66629907825379
303,NgheAn,414.0,ThaiHoa,2010,134578672.06850946,105.44566838215442,19.289649267614305
304,HaTinh,436.0,HaTinh,2010,56617688.831179984,105.90298013964738,18.355119943493886
305,HaTinh,437.0,HongLinh,2010,60115999.40842781,105.70899301733898,18.530891428686566
306,HaTinh,442.0,NghiXuan,2010,219362964.1915055,105.76548027621162,18.620196909440754
307,HaTinh,440.0,DucTho,2010,201780517.6016973,105.60620094169279,18.49522466393557
308,HaTinh,439.0,HuongSon,2010,1095340622.9488063,105.30640235156798,18.478125215304438
309,HaTinh,443.0,CanLoc,2010,300558601.5134508,105.73332644462548,18.440114483489964
310,HaTinh,445.0,ThachHa,2010,245036054.74894196,105.83713647233547,18.32311324425738
311,HaTinh,446.0,CamXuyen,2010,636983743.9635295,106.0057555988317,18.194491989523364
312,HaTinh,444.0,HuongKhe,2010,1257777656.4748259,105.67945383016969,18.177163773831417
313,HaTinh,447.0,KyAnh,2010,758116949.5928264,106.18093199548323,18.064754551155517
314,HaTinh,447.0,KyAnh,2010,278059142.62297684,106.36660462434328,18.03989597135571
315,HaTinh,448.0,LocHa,2010,116940753.42263404,105.86457764545995,18.468642228246694
316,QuangBinh,450.0,DongHoi,2010,155262627.592282,106.57757999994833,17.446632569210202
317,QuangBinh,453.0,TuyenHoa,2010,1127176538.2211747,106.01030823852926,17.910796148396155
318,QuangBinh,452.0,MinhHoa,2010,1382110460.4162087,105.88944535855063,17.758466514153973
319,QuangBinh,454.0,QuangTrach,2010,444081174.2493288,106.37294301981346,17.87495104957373
320,QuangBinh,455.0,BoTrach,2010,2105466146.4815042,106.27711526559993,17.52204648287821
321,QuangBinh,456.0,QuangNinh,2010,1197101801.3596542,106.50126958697032,17.274133888587503
322,QuangBinh,457.0,LeThuy,2010,1399602724.120528,106.70836355204467,17.111845819230023
323,QuangTri,461.0,DongHa,2010,72937781.3702152,107.08837638552738,16.801249621844224
324,QuangTri,462.0,QuangTri,2010,74556508.90383744,107.14486020666222,16.67810137328959
325,QuangTri,464.0,VinhLinh,2010,619245998.1425653,106.9324568680878,17.01523843576948
326,QuangTri,466.0,GioLinh,2010,473694921.5370905,106.98035971766816,16.904118828330017
327,QuangTri,468.0,CamLo,2010,343865029.61823565,106.96354986529089,16.790816090374367
328,QuangTri,469.0,TrieuPhong,2010,353101197.5643183,107.15148877088951,16.776203670960136
329,QuangTri,470.0,HaiLang,2010,424053163.65547585,107.2495356578401,16.674347540858562
330,QuangTri,465.0,HuongHoa,2010,1148082485.6146085,106.67635754573706,16.706811911509636
331,QuangTri,467.0,DaKrong,2010,1102776090.0104625,106.94229974633193,16.570922804252753
332,ThuaThienHue,474.0,Hue,2010,71273440.69382249,107.57545224093914,16.457784051428064
333,ThuaThienHue,476.0,PhongDien,2010,952358786.2321831,107.29660284564328,16.52098386433515
334,ThuaThienHue,477.0,QuangDien,2010,163939512.49599215,107.50104283099688,16.589432536092477
335,ThuaThienHue,480.0,HuongTra,2010,520230634.6889834,107.48146377119882,16.40135549295001
336,ThuaThienHue,478.0,PhuVang,2010,279139772.1965914,107.71707495594698,16.460904375680567
337,ThuaThienHue,479.0,HuongThuy,2010,455470956.8375938,107.61864154442671,16.313141847694496
338,ThuaThienHue,482.0,PhuLoc,2010,712137236.4150268,107.88363615344883,16.27451685277733
339,ThuaThienHue,481.0,ALuoi,2010,1226221662.2746303,107.29830049124715,16.235919489103633
340,ThuaThienHue,483.0,NamDong,2010,647998534.0952117,107.68575757326182,16.12067943151947
341,DaNang,492.0,HaiChau,2010,22184639.063336033,108.2128444482921,16.052263080867206
342,DaNang,491.0,ThanhKhe,2010,9437764.455916448,108.19286563602245,16.06204227992819
343,DaNang,493.0,SonTra,2010,59083226.60481701,108.26360910715445,16.113153202986986
344,DaNang,494.0,NguHanhSon,2010,39633523.914990984,108.24952966203297,15.997917177949622
345,DaNang,490.0,LienChieu,2010,80526680.5974426,108.13341438202151,16.121272938168595
346,DaNang,497.0,HoaVang,2010,738876778.4547086,108.01535047288152,16.065570184973463
347,DaNang,495.0,CamLe,2010,32825488.544978265,108.19668757849136,16.014846452696222
348,QuangNam,502.0,TamKy,2010,94402399.69633637,108.49447302163514,15.587114036334633
349,QuangNam,503.0,HoiAn,2010,47949701.68826784,108.33850201859018,15.884729938838264
350,QuangNam,505.0,DongGiang,2010,823384702.6031041,107.76473771672096,15.928270051999142
351,QuangNam,506.0,DaiLoc,2010,579868886.9637535,107.97426925026026,15.842973039143834
352,QuangNam,507.0,DienBan,2010,217546912.7214691,108.22334521612989,15.90215065963727
353,QuangNam,508.0,DuyXuyen,2010,311024917.37794745,108.20218224991308,15.799967151316267
354,QuangNam,513.0,ThangBinh,2010,411786732.0535598,108.37343180186885,15.69088671557884
355,QuangNam,509.0,QueSon,2010,258341472.69479698,108.24341308531892,15.713359938521656
356,QuangNam,512.0,HiepDuc,2010,497698853.48459303,108.09575424660011,15.534382829434938
357,QuangNam,514.0,TienPhuoc,2010,454289204.2189851,108.26905812344576,15.477262588041675
358,QuangNam,511.0,PhuocSon,2010,1155555635.5542185,107.83739992946948,15.399481128027919
359,QuangNam,517.0,NuiThanh,2010,555195724.4137858,108.56889504662286,15.433826451359998
360,QuangNam,515.0,BacTraMy,2010,847164361.3149838,108.2093393960837,15.309666677610965
361,QuangNam,518.0,PhuNinh,2010,256089652.17772317,108.41320312153906,15.521030928293326
362,QuangNam,519.0,NongSon,2010,472098516.48028594,107.98763028757392,15.662427039393927
363,QuangNgai,522.0,QuangNgai,2010,156267893.09508228,108.84196681141056,15.154796816488602
364,QuangNgai,536.0,LySon,2010,8835075.163952583,109.11783218598846,15.381932088225005
365,QuangNgai,524.0,BinhSon,2010,21172.172227995736,108.95357266047642,15.193154869839162
366,QuangNgai,525.0,TraBong,2010,423143899.52569467,108.50620693645695,15.237307178884109
367,QuangNgai,527.0,SonTinh,2010,242330451.94935307,108.70373591854741,15.196114503444331
368,QuangNgai,530.0,SonTay,2010,381985414.07873714,108.35707511161054,14.970261179387776
369,QuangNgai,529.0,SonHa,2010,755858033.9700624,108.52032452010866,14.98443096359571
370,QuangNgai,528.0,TuNghia,2010,208238094.77001807,108.74160815960732,15.093736921710718
371,QuangNgai,532.0,NghiaHanh,2010,235463445.93796194,108.77556870875982,14.9807216757297
372,QuangNgai,533.0,MoDuc,2010,215191172.7188768,108.87965616756846,14.959943583026405
373,QuangNgai,534.0,DucPho,2010,375905383.5520745,108.96146423903122,14.780522009403994
374,QuangNgai,535.0,BaTo,2010,1138549696.366849,108.6955294949445,14.726816165051453
375,BinhDinh,540.0,QuiNhon,2010,4608.692568327759,109.23953333408257,13.66813333375809
376,BinhDinh,542.0,AnLao,2010,694466811.5986496,108.79791083551841,14.553129611234773
377,BinhDinh,543.0,HoaiNhon,2010,421409825.1412438,109.02485269676288,14.507719934435231
378,BinhDinh,544.0,HoaiAn,2010,750419980.8184023,108.89728702708366,14.34609151130813
379,BinhDinh,545.0,PhuMy,2010,554692326.5759516,109.08683896071858,14.226805140913319
380,BinhDinh,546.0,VinhThanh,2010,717547408.1785387,108.74367353939378,14.228436351860815
381,BinhDinh,548.0,PhuCat,2010,680976775.1866679,109.07746845574349,14.052818583139118
382,BinhDinh,547.0,TaySon,2010,693603943.5804623,108.88306806470679,13.933404088200225
383,BinhDinh,549.0,AnNhon,2010,244941021.88924533,109.06169897034042,13.870315361680804
384,BinhDinh,550.0,TuyPhuoc,2010,219780167.42511612,109.16154200429781,13.84417046789847
385,PhuYen,555.0,TuyHoa,2010,111600816.8761493,109.27400883653695,13.113465094726525
386,PhuYen,558.0,DongXuan,2010,1038027562.0022823,108.96722811868268,13.43033720312065
387,PhuYen,557.0,SongCau,2010,179.65130486027977,109.2856000000453,13.532000000019064
388,PhuYen,559.0,TuyAn,2010,406391907.07627386,109.20983855524317,13.257643375045605
389,PhuYen,560.0,SonHoa,2010,936466093.2389653,108.9549182455317,13.171220407178435
390,PhuYen,563.0,PhuHoa,2010,254576510.89270627,109.17959883077361,13.068346771581316
391,PhuYen,562.0,TayHoa,2010,628935450.3100128,109.16562821358953,12.917737238894857
392,PhuYen,564.0,DongHoa,2010,720.5615470446317,109.39166666666218,12.824933333350423
393,KhanhHoa,564.0,DongHoa,2010,,,
394,PhuYen,561.0,SongHinh,2010,895583330.2002769,108.90866354244277,12.922375739950377
395,KhanhHoa,568.0,NhaTrang,2010,215884491.10134003,109.16908620983794,12.262731546874235
396,KhanhHoa,569.0,CamRanh,2010,43531.24736823743,109.22422963933764,11.770079411881587
397,KhanhHoa,571.0,VanNinh,2010,3125.3506821029814,109.46069999974974,12.565133333507283
398,KhanhHoa,572.0,NinhHoa,2010,65090.73985286864,109.21805228354995,12.385497998730024
399,KhanhHoa,574.0,DienKhanh,2010,343605983.1161848,109.03884501413016,12.275080554197704
400,KhanhHoa,573.0,KhanhVinh,2010,1166920914.00029,108.84097892530966,12.312331793792133
401,KhanhHoa,575.0,KhanhSon,2010,339859418.08943546,108.9044898886796,12.030286199430632
402,KhanhHoa,570.0,CamLam,2010,560589484.1028999,109.08063910453602,12.080860270181415
403,KonTum,608.0,KonTum,2010,429243640.3986183,107.97510760471087,14.342080679862088
404,KonTum,610.0,DakGlei,2010,1494555659.637952,107.7242728279424,15.091968102336384
405,KonTum,611.0,NgocHoi,2010,834516432.1336583,107.64453471396364,14.721548226192281
406,KonTum,612.0,DakTo,2010,509583850.16554874,107.81696899954008,14.693172960943919
407,KonTum,614.0,KonRay,2010,917760315.6189252,108.18787705664357,14.542166542673254
408,KonTum,613.0,KonPlong,2010,1375070249.3630383,108.31561815063951,14.767620036171776
409,KonTum,615.0,DakHa,2010,846102308.9475961,107.99228512843665,14.601862982076605
410,KonTum,616.0,SaThay,2010,1232857860.922119,107.70980520744982,14.401328386356955
411,GiaLai,622.0,Pleiku,2010,261305406.5884468,107.99244617016079,13.951483502122558
412,GiaLai,625.0,KBang,2010,1838317361.4584532,108.50080104124831,14.306517430794846
413,GiaLai,626.0,DakDoa,2010,987139940.5937706,108.173178476732,14.088764633026168
414,GiaLai,629.0,MangYang,2010,1127957751.427181,108.30847209173008,13.948612016077837
415,GiaLai,627.0,ChuPah,2010,981101454.6573738,107.95469953465157,14.193027775321589
416,GiaLai,628.0,IaGrai,2010,1121687689.0480049,107.7250533224466,13.976258575293194
417,GiaLai,623.0,AnKhe,2010,199886792.59461844,108.69567093935464,14.014905171157903
418,GiaLai,634.0,DakPo,2010,503475642.41884094,108.60199698207528,13.929266537030209
419,GiaLai,630.0,KongChro,2010,1444897295.8174913,108.59073921244352,13.745244676576931
420,GiaLai,631.0,DucCo,2010,719426085.8103293,107.65686493396666,13.78128545991364
421,GiaLai,632.0,ChuProng,2010,1702193606.4726157,107.81096329856341,13.59595785328157
422,GiaLai,633.0,ChuSe,2010,644772710.8672293,108.12054851575402,13.70695982357498
423,GiaLai,639.0,ChuPuh,2010,720207534.7269434,108.0738164730243,13.498182877054347
424,GiaLai,635.0,IaPa,2010,868009197.9659508,108.52476116298948,13.531470349065675
425,GiaLai,638.0,PhuThien,2010,504627012.1818249,108.31263142098122,13.495155306590101
426,GiaLai,624.0,AyunPa,2010,287312868.8439179,108.41535603432946,13.331233859893654
427,GiaLai,637.0,KrongPa,2010,1623513847.052601,108.65632056594919,13.233183804647643
428,DakLak,643.0,BuonMaThuot,2010,379134148.12776613,108.02921932439943,12.658041965336729
429,DakLak,645.0,EaH'leo,2010,1340353226.2286482,108.17543743761496,13.24117975053202
430,DakLak,646.0,EaSup,2010,1767504882.6148067,107.79770083557978,13.187808238524953
431,DakLak,650.0,KrongNang,2010,610004937.5400819,108.39350752556878,13.01679218359956
432,DakLak,649.0,KrongBuk,2010,358161468.8322909,108.20427462133222,13.027537162718652
433,DakLak,644.0,BuonHo,2010,283704787.16083044,108.2794692077283,12.849193766376942
434,DakLak,647.0,BuonDon,2010,1406949824.2307706,107.72896850052389,12.901925625841647
435,DakLak,648.0,CuM'gar,2010,824558900.553415,108.07297006512655,12.885094875643736
436,DakLak,651.0,EaKar,2010,1037083355.2202724,108.55841663795995,12.804291290662611
437,DakLak,652.0,M'Drak,2010,1245576933.146177,108.78612523642671,12.717154821570563
438,DakLak,654.0,KrongPac,2010,627407441.1218387,108.34488295348758,12.689318028442623
439,DakLak,655.0,KrongANa,2010,356519761.72281873,108.0440771520001,12.4903297247263
440,DakLak,657.0,CuKuin,2010,288657177.5775667,108.17804931540849,12.587950620386918
441,DakLak,653.0,KrongBong,2010,1258442287.38432,108.50020876177632,12.468825726385365
442,DakLak,656.0,Lak,2010,1257903258.5867171,108.21623363621258,12.329561757320464
443,DakNong,660.0,GiaNghia,2010,282470446.2194035,107.69581923984687,12.006651426024174
444,DakNong,661.0,DakGlong,2010,1450553456.571573,107.90554526191782,12.033084704783086
445,DakNong,662.0,CuJut,2010,721410676.881522,107.75989706055017,12.692556546280278
446,DakNong,664.0,KrongNo,2010,817697258.0490818,107.87589469309617,12.36459444989565
447,DakNong,663.0,DakMil,2010,682219444.3345226,107.66944486439337,12.516463553922687
448,DakNong,665.0,DakSong,2010,805918139.528906,107.62769106752123,12.232468664313135
449,DakNong,667.0,TuyDuc,2010,1122812833.1630235,107.37735779054394,12.141097592540241
450,DakNong,666.0,DakR'Lap,2010,636367281.8516004,107.5160157509074,11.904614681849953
451,LamDong,672.0,DaLat,2010,394111529.9233529,108.46366031587257,11.92092038259379
452,LamDong,673.0,BaoLoc,2010,233462059.73536062,107.79156337164851,11.535590655131875
453,LamDong,675.0,LacDuong,2010,1308811941.2736657,108.52768565849074,12.128234369204907
454,LamDong,677.0,DonDuong,2010,612921659.7632601,108.56266420149363,11.76884491323528
455,LamDong,678.0,DucTrong,2010,906076287.4310508,108.38621812092497,11.651414691026858
456,LamDong,676.0,LamHa,2010,941157771.6893308,108.20026242693856,11.827271754819332
457,LamDong,674.0,DamRong,2010,865464244.617048,108.17136334264474,12.0675371556149
458,LamDong,680.0,BaoLam,2010,1466113306.1012049,107.75941760379274,11.68653915163155
459,LamDong,679.0,DiLinh,2010,1618934065.5726857,108.07776959735762,11.502328670948872
460,LamDong,681.0,DaHuoai,2010,495634520.7784996,107.63537006437639,11.430375789098878
461,LamDong,682.0,DaTeh,2010,527845929.26195014,107.5291479542264,11.580597104784363
462,LamDong,683.0,CatTien,2010,427690185.67265415,107.38067764292525,11.669895338510173
463,HoChiMinh,760.0,1,2010,,,
464,HoChiMinh,769.0,2,2010,,,
465,HoChiMinh,770.0,3,2010,,,
466,HoChiMinh,773.0,4,2010,,,
467,HoChiMinh,774.0,5,2010,,,
468,HoChiMinh,775.0,6,2010,,,
469,HoChiMinh,778.0,7,2010,,,
470,HoChiMinh,776.0,8,2010,,,
471,HoChiMinh,763.0,9,2010,,,
472,HoChiMinh,771.0,10,2010,,,
473,HoChiMinh,772.0,11,2010,,,
474,HoChiMinh,761.0,12,2010,,,
475,HoChiMinh,764.0,GoVap,2010,19673073.111592203,106.66728953838711,10.838305871198846
476,HoChiMinh,766.0,TanBinh,2010,22253395.90341182,106.65235911507847,10.808976781093277
477,HoChiMinh,767.0,TanPhu,2010,16259613.696050107,106.62685845661782,10.792438779471063
478,HoChiMinh,765.0,BinhThanh,2010,20697406.111124367,106.71598932935997,10.811834854453892
479,HoChiMinh,768.0,PhuNhuan,2010,4993874.576732936,106.67813080362234,10.800423835376474
480,HoChiMinh,762.0,ThuDuc,2010,47962117.4890833,106.74521539359701,10.85560856226866
481,HoChiMinh,783.0,CuChi,2010,434975538.857022,106.51070701787617,11.009724564917907
482,HoChiMinh,784.0,HocMon,2010,108825750.9758331,106.58977306703888,10.885691394808656
483,HoChiMinh,777.0,BinhTan,2010,52417739.33194948,106.59747955184042,10.764571729738888
484,HoChiMinh,785.0,BinhChanh,2010,251980340.30439287,106.57572555637782,10.733715781754174
485,HoChiMinh,786.0,NhaBe,2010,100621625.22449315,106.73045195853413,10.654160789150197
486,HoChiMinh,787.0,CanGio,2010,718414685.081495,106.87456557262655,10.510557805903112
487,NinhThuan,582.0,PhanRang-ThapCham,2010,78533339.65450896,108.97655197052728,11.599591911884332
488,NinhThuan,585.0,NinhSon,2010,773950738.5991488,108.72958142419027,11.703117294009836
489,NinhThuan,584.0,BacAi,2010,1030258642.7775941,108.84740012953465,11.90299529559731
490,NinhThuan,586.0,NinhHai,2010,69871.34334199016,109.14574551496197,11.580619687792712
491,NinhThuan,588.0,ThuanBac,2010,317694436.82405126,109.07049083957395,11.744013986550122
492,NinhThuan,587.0,NinhPhuoc,2010,342960237.1395468,108.87466264137403,11.565227885013046
493,NinhThuan,589.0,ThuanNam,2010,564847981.3909972,108.86192563423677,11.441806005137074
494,BinhThuan,589.0,ThuanNam,2010,,,
495,BinhPhuoc,689.0,DongXoai,2010,167531910.20637545,106.84710194043427,11.519678080183384
496,BinhPhuoc,695.0,DongPhu,2010,938162167.5552832,106.95528371098257,11.497387790329643
497,BinhPhuoc,688.0,PhuocLong,2010,123804378.2103212,106.99672711620805,11.824562202706451
498,BinhPhuoc,691.0,BuGiaMap,2010,1067029515.5962011,107.04703242806505,12.024316569935023
499,BinhPhuoc,692.0,LocNinh,2010,853005448.8400643,106.57244890420974,11.846657859378652
500,BinhPhuoc,693.0,BuDop,2010,376511505.02298635,106.82155897327131,11.993093560024299
501,BinhPhuoc,696.0,BuDang,2010,1495399081.5126357,107.21831984242732,11.782745385829715
502,BinhPhuoc,690.0,BinhLong,2010,127019218.80666526,106.58538023286049,11.683648085274168
503,BinhPhuoc,694.0,HonQuan,2010,667573984.3329016,106.61236537249196,11.618743554805214
504,BinhPhuoc,697.0,ChonThanh,2010,385672121.928118,106.665335205385,11.46943644569487
505,TayNinh,703.0,TayNinh,2010,139910110.5605216,106.12668809934753,11.368831966602608
506,TayNinh,705.0,TanBien,2010,856830016.1569957,105.99968589110901,11.578061061751562
507,TayNinh,706.0,TanChau,2010,1103375006.72377,106.27297587918474,11.577615171004464
508,TayNinh,707.0,DuongMinhChau,2010,434138364.92267144,106.26375860042016,11.32728262081053
509,TayNinh,708.0,ChauThanh,2010,579962780.7169137,105.99079453646073,11.312694277651582
510,TayNinh,709.0,HoaThanh,2010,83670890.66298205,106.14770571221695,11.26185595364575
511,TayNinh,711.0,BenCau,2010,236987146.98298165,106.13861694675347,11.129852293006923
512,TayNinh,710.0,GoDau,2010,259939346.20621097,106.25741418231283,11.158558852906006
513,TayNinh,712.0,TrangBang,2010,338634496.98334086,106.33727380166478,11.079347987131365
514,BinhDuong,718.0,ThuDauMot,2010,118576635.56839414,106.66454543967377,11.021634250232085
515,BinhDuong,720.0,DauTieng,2010,721024162.0294611,106.45433579812205,11.327379033552402
516,BinhDuong,721.0,BenCat,2010,234212140.31691492,106.60727960360833,11.115137557773716
517,BinhDuong,722.0,PhuGiao,2010,545842140.780104,106.78741418387551,11.315026993047649
518,BinhDuong,723.0,TanUyen,2010,191916657.08767277,106.75220299359655,11.063128069847641
519,BinhDuong,725.0,ThuanAn,2010,83762938.82375206,106.71020185280717,10.935453615722944
520,DongNai,725.0,ThuanAn,2010,,,
521,BinhDuong,724.0,DiAn,2010,59949447.61151661,106.77622153898602,10.908011004919127
522,DongNai,731.0,BienHoa,2010,262591195.02369934,106.88098456964221,10.91794893302464
523,DongNai,734.0,TanPhu,2010,775192387.6605262,107.37880931665427,11.39696118036691
524,DongNai,736.0,DinhQuan,2010,972665488.7014391,107.28819130368687,11.198664412441913
525,DongNai,735.0,VinhCuu,2010,1090048781.8947046,107.05001758139538,11.238551367841325
526,DongNai,738.0,ThongNhat,2010,246743239.99236503,107.15491469320632,10.99011160200656
527,DongNai,737.0,TrangBom,2010,329510603.21474224,107.03513672669435,10.969334094103797
528,DongNai,739.0,CamMy,2010,466216837.8208776,107.25386118739938,10.801219140410527
529,DongNai,732.0,LongKhanh,2010,191745167.67634037,107.23640234462711,10.935212603586045
530,DongNai,741.0,XuanLoc,2010,723752191.5936294,107.42443049060489,10.920521060633046
531,DongNai,740.0,LongThanh,2010,430501122.73271966,107.0231780166102,10.76514064582282
532,DongNai,742.0,NhonTrach,2010,376924864.9888041,106.8879208324372,10.692005717441141
533,BaRia-VungTau,742.0,NhonTrach,2010,,,
534,BinhThuan,593.0,PhanThiet,2010,212141975.32006824,108.17718915783404,10.938721344060806
535,BinhThuan,595.0,TuyPhong,2010,772307012.8102766,108.67393162238118,11.354018074669327
536,BinhThuan,596.0,BacBinh,2010,1870225910.5129206,108.39562403533978,11.28361602587622
537,BinhThuan,597.0,HamThuanBac,2010,1345780799.3692245,108.0530471051641,11.15741985418797
538,BinhThuan,598.0,HamThuanNam,2010,1059801069.6253115,107.90710421815733,10.934347562509883
539,BinhThuan,599.0,TanhLinh,2010,1197820446.4048142,107.7050585127324,11.111139722839296
540,BinhThuan,601.0,HamTan,2010,743425905.8473276,107.64752808172932,10.766497920225358
541,BinhThuan,594.0,LaGi,2010,184752531.71462256,107.78579701289418,10.718947134064422
542,BinhThuan,600.0,DucLinh,2010,548785222.1727002,107.5410130946739,11.183034582271361
543,BaRia-VungTau,747.0,VungTau,2010,139754616.9230924,107.11834308008186,10.418993845688668
544,BaRia-VungTau,748.0,BaRia,2010,90948753.6513363,107.1797195108948,10.50895591463852
545,BaRia-VungTau,750.0,ChauDuc,2010,424762400.21006507,107.24817754212194,10.653311978748992
546,BaRia-VungTau,751.0,XuyenMoc,2010,641851300.0083796,107.45177353993292,10.626233806225882
547,BaRia-VungTau,754.0,TanThanh,2010,340596651.2507583,107.0880813819489,10.576766210276347
548,BaRia-VungTau,752.0,LongDien,2010,80743103.72325216,107.22376266703561,10.446802059039635
549,BaRia-VungTau,753.0,DatDo,2010,187559113.05542088,107.30223975279551,10.494941756271064
550,LongAn,794.0,TanAn,2010,81732555.71934763,106.40271884419889,10.532589680435477
551,LongAn,796.0,TanHung,2010,497369346.754008,105.68676776876116,10.831949170666476
552,LongAn,797.0,VinhHung,2010,381586740.99757636,105.78025288627255,10.902574879849727
553,LongAn,798.0,MocHoa,2010,290698959.09891176,106.01986772479961,10.753898430187604
554,LongAn,799.0,TanThanh,2010,426785459.86233866,105.9620504426697,10.613865402827425
555,LongAn,800.0,ThanhHoa,2010,470635437.55993325,106.1752158099147,10.673962281143833
556,LongAn,801.0,DucHue,2010,427971620.55377936,106.2568847666809,10.866471720803952
557,LongAn,802.0,DucHoa,2010,425323567.5617224,106.40913222448233,10.889059086908286
558,LongAn,803.0,BenLuc,2010,287584128.9331599,106.45109156919116,10.691834148360083
559,LongAn,804.0,ThuThua,2010,298843458.32753456,106.33469200150502,10.660507571266
560,LongAn,808.0,ChauThanh,2010,155209724.51094794,106.49415046217023,10.458954873690974
561,TienGiang,808.0,ChauThanh,2010,233293720.31634814,106.27287332854301,10.404873597882709
562,LongAn,805.0,TanTru,2010,106391089.48651518,106.50805205655718,10.533208404710004
563,LongAn,806.0,CanDuoc,2010,221208316.64847115,106.60108844607211,10.531466906175954
564,LongAn,807.0,CanGiuoc,2010,217521273.6182012,106.66866601330116,10.582790507245212
565,DongThap,866.0,CaoLanh,2010,489887018.4037908,105.70499755331771,10.48881021236949
566,DongThap,866.0,CaoLanh,2010,108364952.11424239,105.61978086610192,10.455671617374835
567,DongThap,867.0,SaDec,2010,59401417.6875348,105.74041586509308,10.317959606867042
568,DongThap,869.0,TanHong,2010,308976828.6374703,105.48638492420191,10.873785509075168
569,DongThap,870.0,HongNgu,2010,214077610.7564981,105.28121169191522,10.815923800538668
570,DongThap,870.0,HongNgu,2010,122209650.373539,105.37949141327293,10.81853120041594
571,DongThap,868.0,HongNgu,2010,214077610.7564981,105.28121169191522,10.815923800538668
572,DongThap,868.0,HongNgu,2010,122209650.373539,105.37949141327293,10.81853120041594
573,DongThap,871.0,TamNong,2010,474363107.457338,105.52461991154809,10.728760389505018
574,DongThap,874.0,ThanhBinh,2010,345358763.9606051,105.47361256254553,10.609090059416081
575,DongThap,872.0,ThapMuoi,2010,534019556.24700415,105.797799471449,10.561895442657852
576,DongThap,873.0,CaoLanh,2010,489887018.4037908,105.70499755331771,10.48881021236949
577,DongThap,873.0,CaoLanh,2010,108364952.11424239,105.61978086610192,10.455671617374835
578,DongThap,875.0,LapVo,2010,247456377.08943647,105.60279689044177,10.359201989011098
579,DongThap,876.0,LaiVung,2010,238301865.852076,105.65777846707475,10.248925735060576
580,DongThap,877.0,ChauThanh,2010,245712095.5482529,105.81841440769888,10.226653339898535
581,AnGiang,883.0,LongXuyen,2010,114524563.55739725,105.42804931914795,10.371307190371965
582,AnGiang,884.0,ChauDoc,2010,103388808.32035562,105.08741697968232,10.674122025118622
583,AnGiang,886.0,AnPhu,2010,226849284.39890844,105.10074989622139,10.846396226048537
584,AnGiang,887.0,TanChau,2010,171512203.71562675,105.18646098586412,10.800166803043792
585,AnGiang,888.0,PhuTan,2010,311959082.8043846,105.27574787073685,10.654864327776213
586,AnGiang,889.0,ChauPhu,2010,450432026.6661464,105.1797871616774,10.557599372502278
587,AnGiang,890.0,TinhBien,2010,352304059.44852257,105.01171343086335,10.547260569851447
588,AnGiang,891.0,TriTon,2010,598690712.2769026,104.95911157559001,10.412562441403338
589,AnGiang,893.0,ChoMoi,2010,368509537.5198684,105.46145085026596,10.47494144964929
590,AnGiang,892.0,ChauThanh,2010,354959119.03537226,105.26575442218974,10.421310021060018
591,AnGiang,894.0,ThoaiSon,2010,468837559.2294258,105.25556409651865,10.296844521996746
592,TienGiang,815.0,MyTho,2010,82591955.02722023,106.35422736332298,10.364588937909843
593,TienGiang,816.0,GoCong,2010,101951097.64679863,106.6565025426981,10.405475495517047
594,TienGiang,818.0,TanPhuoc,2010,333931313.9265559,106.22557293420782,10.518243881284583
595,TienGiang,821.0,ChauThanh,2010,233293720.31634814,106.27287332854301,10.404873597882709
596,TienGiang,820.0,CaiLay,2010,295016079.0083465,106.08449211018971,10.390671774022044
597,TienGiang,820.0,CaiLay,2010,139477257.4183551,106.13834752885019,10.425557784690687
598,TienGiang,822.0,ChoGao,2010,231293842.1997949,106.4502290529144,10.38567323395328
599,TienGiang,819.0,CaiBe,2010,415243389.36470264,105.94001677617295,10.38996456850584
600,TienGiang,823.0,GoCongTay,2010,184631444.49830312,106.59541845183304,10.348175823711305
601,TienGiang,824.0,GoCongDong,2010,234216103.3312731,106.73822352400457,10.371243848566653
602,TienGiang,825.0,TanPhuDong,2010,2367057.5045263264,106.79283565717745,10.211995011937299
603,VinhLong,855.0,VinhLong,2010,47908887.37113633,105.93699637984584,10.252593461020634
604,VinhLong,857.0,LongHo,2010,197579078.78402644,105.96808038155191,10.221852267000378
605,VinhLong,858.0,MangThit,2010,161871318.37656477,106.07860684984495,10.189777319540658
606,VinhLong,861.0,BinhMinh,2010,93388316.01573823,105.84332604035262,10.04629682203424
607,VinhLong,860.0,TamBinh,2010,290470929.9337682,105.94864090510053,10.080378202509124
608,VinhLong,862.0,TraOn,2010,267247396.87061155,105.99910591048501,9.987086435692987
609,VinhLong,859.0,VungLiem,2010,308677835.334319,106.15585975285667,10.075675178547227
610,VinhLong,863.0,BinhTan,2010,157858668.4117251,105.77117867469319,10.134907305009035
611,BenTre,829.0,BenTre,2010,71752155.24147598,106.37262033493614,10.238518582517774
612,BenTre,831.0,ChauThanh,2010,223970518.5436007,106.3051384133886,10.290497442280511
613,BenTre,832.0,ChoLach,2010,168407775.7981128,106.16020923199144,10.2300650728259
614,BenTre,838.0,MoCayBac,2010,166143104.67384762,106.28972679849805,10.18014634173239
615,BenTre,833.0,MoCayNam,2010,231460720.7039141,106.3584077399125,10.06973242816989
616,BenTre,834.0,GiongTrom,2010,312889355.3154206,106.46769092643878,10.15641678637907
617,BenTre,835.0,BinhDai,2010,399933818.2872225,106.64787485660966,10.176881372391552
618,BenTre,836.0,BaTri,2010,352570332.7712413,106.5956855375767,10.062983943626291
619,BenTre,837.0,ThanhPhu,2010,410918373.15760154,106.55098117753057,9.927970932030686
620,KienGiang,899.0,RachGia,2010,102668821.2043366,105.10862862860512,10.033407824868178
621,KienGiang,900.0,HaTien,2010,7690.97348528543,104.23673333341836,10.206300000148742
622,KienGiang,902.0,KienLuong,2010,25086.653389595722,104.4987937195736,9.972710628430479
623,KienGiang,903.0,HonDat,2010,1035171531.4390544,104.9410617140598,10.221790973408945
624,KienGiang,904.0,TanHiep,2010,425237422.6199222,105.24288202376165,10.091578493496584
625,KienGiang,905.0,ChauThanh,2010,284700359.63847923,105.1689422618577,9.944332858266607
626,KienGiang,906.0,GiongRieng,2010,640996532.3027408,105.36725565367465,9.911360504123047
627,KienGiang,907.0,GoQuao,2010,436434610.2134938,105.29548714241992,9.74123416615131
628,KienGiang,908.0,AnBien,2010,391351141.27686715,105.0462454947897,9.821887876815717
629,KienGiang,909.0,AnMinh,2010,575851546.3061457,104.93777232813801,9.660773325941008
630,KienGiang,910.0,VinhThuan,2010,374107524.5405363,105.2384998081565,9.5398531903058
631,KienGiang,911.0,PhuQuoc,2010,19442.887789053613,103.46801458252622,9.255718750378868
632,KienGiang,913.0,UMinhThuong,2010,433965166.3126313,105.12640341433142,9.627102991307073
633,CanTho,916.0,NinhKieu,2010,29315787.779500205,105.76444572554128,10.0308769657787
634,CanTho,917.0,OMon,2010,129701720.24477819,105.63324306768106,10.126792860226248
635,CanTho,918.0,BinhThuy,2010,70271088.30546007,105.72317924081227,10.063414068514415
636,CanTho,919.0,CaiRang,2010,67709158.76742864,105.78683425838813,9.991199546040223
637,CanTho,923.0,ThotNot,2010,119999482.26339708,105.54704030453983,10.241991172644436
638,CanTho,925.0,CoDo,2010,319980475.27404416,105.46075613508309,10.126914009814952
639,CanTho,924.0,VinhThanh,2010,307425270.6119837,105.3690078197518,10.213922778756405
640,CanTho,927.0,ThoiLai,2010,268597829.0889539,105.53856850875384,10.030655762920183
641,CanTho,926.0,PhongDien,2010,125465729.95908552,105.663148055869,9.998282433552363
642,HauGiang,930.0,ViThanh,2010,118390781.33720191,105.42828016410105,9.748581364284458
643,HauGiang,932.0,ChauThanhA,2010,160201199.81020397,105.62910447395531,9.930189653661243
644,HauGiang,933.0,ChauThanh,2010,141275108.23131087,105.81662395576733,9.92209414511834
645,HauGiang,934.0,PhungHiep,2010,486040688.0009435,105.70649321700259,9.794508929892032
646,HauGiang,931.0,NgaBay,2010,77132380.74575232,105.82125391217888,9.831115731102033
647,HauGiang,935.0,ViThuy,2010,226633679.2437124,105.53717082073221,9.798512408596514
648,HauGiang,936.0,LongMy,2010,260910601.22853684,105.47827977653189,9.648444139309916
649,HauGiang,936.0,LongMy,2010,150709582.0209532,105.61341614674733,9.684017948146721
650,SocTrang,936.0,LongMy,2010,,,
651,TraVinh,842.0,TraVinh,2010,66748090.577996835,106.33740529415678,9.95436868717759
652,TraVinh,844.0,CangLong,2010,294735309.9140618,106.21534892091786,9.969910404522592
653,TraVinh,847.0,ChauThanh,2010,385157049.14237505,106.39038096587007,9.874289735174864
654,TraVinh,845.0,CauKe,2010,247024148.11489016,106.0724985131005,9.867349188061548
655,TraVinh,846.0,TieuCan,2010,227169812.19027254,106.196772087129,9.803916664775514
656,TraVinh,848.0,CauNgang,2010,326109664.1628047,106.44713067235443,9.78041227334946
657,TraVinh,849.0,TraCu,2010,317687696.5279578,106.27435262925329,9.702478214079628
658,TraVinh,850.0,DuyenHai,2010,258794041.8393366,106.39610226595384,9.612165745163072
659,TraVinh,850.0,DuyenHai,2010,199494666.30362022,106.51850486323625,9.658647648143244
660,VinhLong,850.0,DuyenHai,2010,,,
661,SocTrang,941.0,SocTrang,2010,76050904.34921843,105.98506004066385,9.609440362093844
662,SocTrang,943.0,KeSach,2010,350988611.4303702,105.94169199588751,9.815319209969012
663,SocTrang,946.0,LongPhu,2010,264695378.34997803,106.0745483536683,9.651512039456211
664,SocTrang,951.0,TranDe,2010,378822259.41597193,106.09431177653907,9.498320877031203
665,SocTrang,945.0,CuLaoDung,2010,242460657.22628725,106.19459276693829,9.617512441266244
666,BacLieu,951.0,TranDe,2010,,,
667,SocTrang,944.0,MyTu,2010,367063355.65190536,105.7873029560804,9.60982724940327
668,SocTrang,942.0,ChauThanh,2010,236398409.06341672,105.90576782424166,9.680475101672734
669,SocTrang,947.0,MyXuyen,2010,373832084.66670436,105.88469741995272,9.463422839912523
670,SocTrang,948.0,NgaNam,2010,242284029.73761302,105.6102255479707,9.537466400201291
671,SocTrang,949.0,ThanhTri,2010,287612461.31682,105.7110658871225,9.468755851306266
672,SocTrang,950.0,VinhChau,2010,459264677.0339294,105.99485868133212,9.35623279094575
673,BacLieu,954.0,BacLieu,2010,146952608.1622024,105.76006551367482,9.270148433781634
674,BacLieu,957.0,PhuocLong,2010,419463953.02720743,105.42084686452631,9.387987189313781
675,BacLieu,956.0,HongDan,2010,444114625.5264685,105.40450158522042,9.515466779686756
676,CaMau,961.0,HoaBinh,2010,,,
677,BacLieu,958.0,VinhLoi,2010,251947240.65675905,105.70239266646117,9.357480382470305
678,BacLieu,961.0,HoaBinh,2010,339352518.2696501,105.6139803894735,9.254308362752667
679,BacLieu,959.0,GiaRai,2010,352157413.2375746,105.39070483548146,9.264508863248617
680,BacLieu,960.0,DongHai,2010,522977763.10130256,105.42223606230831,9.146162945247871
681,CaMau,964.0,CaMau,2010,248654930.11400494,105.19073233257812,9.171782862343942
682,CaMau,967.0,ThoiBinh,2010,636678288.9986392,105.13882798225414,9.368501377989519
683,CaMau,966.0,UMinh,2010,769926617.67926,104.94894532989846,9.371517686472906
684,CaMau,968.0,TranVanThoi,2010,15559.561908656022,104.56203333218129,8.882366676340277
685,CaMau,972.0,PhuTan,2010,428556818.0057829,104.88338969140192,8.8915605914718
686,CaMau,969.0,CaiNuoc,2010,416115276.4988771,105.05302069550204,9.005017787961034
687,CaMau,970.0,DamDoi,2010,815466573.6794496,105.24233078454972,8.960411875939199
688,CaMau,971.0,NamCan,2010,469023169.91670287,105.05545921452419,8.78904724800851
689,CaMau,973.0,NgocHien,2010,609915.4215424602,104.85227259455608,8.417119472971168
690,HaTinh,441.0,VuQuang,2010,635255182.6450641,105.44673762225366,18.324780124333255
691,ThanhHoa,384.0,MuongLat,2010,806367867.0712835,104.62191734720481,20.50392552669365
692,QuangNgai,526.0,TayTra,2010,339436525.1937668,108.36729038267187,15.172982091412031
693,QuangNam,516.0,NamTraMy,2010,829090927.3109614,108.07909770787354,15.133213859906437
694,BinhPhuoc,683.0,CatTien,2010,,,
695,BinhDinh,551.0,VanCanh,2010,802647249.8512906,108.96196578392232,13.667845480407683
696,CaoBang,50.0,PhucHoa,2010,250930596.65790102,106.52668546112865,22.558307452807398
697,HaGiang,35.0,QuangBinh,2010,792221039.4948678,104.65601307779487,22.406823353621284
698,ThanhHoa,388.0,LangChanh,2010,583214223.4349321,105.14399674113974,20.142405460843772
699,KonTum,617.0,TuMoRong,2010,860636782.2198526,107.95374804409316,14.894303192853016
700,QuangNam,510.0,NamGiang,2010,1848177904.1100805,107.59100544316573,15.630782630612957
701,NinhThuan,576.0,TruongSa,2010,,,
702,KienGiang,912.0,KienHai,2010,65388.16208373052,104.36528268815961,9.643755412518773
703,QuangNinh,202.0,BaChe,2010,607939698.3217195,107.18000556341416,21.269509542597007
704,BinhDinh,536.0,LySon,2010,,,
705,QuangNinh,207.0,CoTo,2010,21277749.43370322,107.7581889202577,20.9900689168361
706,QuangNam,504.0,TayGiang,2010,911779638.8218555,107.45444791812572,15.868060983550762
707,HaiPhong,317.0,CatHai,2010,115.45492192463348,107.16256666666513,20.612300000006794
708,DakNong,657.0,CuKuin,2010,,,
709,KonTum,602.0,PhuQui,2010,,,
710,TayNinh,697.0,ChonThanh,2010,,,
711,SonLa,127.0,SopCop,2010,1471982965.1144662,103.51224646951977,20.887127453247228
712,DaNang,483.0,NamDong,2010,,,
713,KienGiang,894.0,ThoaiSon,2010,,,
714,BenTre,825.0,TanPhuDong,2010,,,
715,KhanhHoa,576.0,TruongSa,2010,,,
716,QuangNgai,531.0,MinhLong,2010,217368256.27612862,108.67391723478485,14.948039132132353
717,QuangNgai,519.0,NongSon,2010,,,
718,HaiPhong,318.0,BachLongVi,2010,15387585.423627567,107.71648188401296,20.138695571957236
719,BinhThuan,602.0,PhuQui,2010,9994.116517536084,108.96636666671726,10.484818181999549
720,LongAn,787.0,CanGio,2010,,,
721,CanTho,914.0,GiangThanh,2010,,,
722,HauGiang,927.0,ThoiLai,2010,,,
723,BinhDuong,712.0,TrangBang,2010,,,
724,GiaLai,617.0,TuMoRong,2010,,,
725,QuangNam,497.0,HoaVang,2010,,,
726,TraVinh,838.0,MoCayBac,2010,,,
727,LamDong,667.0,TuyDuc,2010,,,
728,PhuYen,551.0,VanCanh,2010,,,
729,HoChiMinh,754.0,TanThanh,2010,,,
730,ThuaThienHue,470.0,HaiLang,2010,,,
731,DongThap,863.0,BinhTan,2010,,,
732,KienGiang,914.0,GiangThanh,2010,405916782.03305674,104.67254837785663,10.452032009079755
733,AnGiang,877.0,ChauThanh,2010,354959119.03537226,105.26575442218974,10.421310021060018
734,QuangTri,471.0,ConCo,2010,117.84160705575438,107.34306666666504,17.149700000005804
735,DakLak,639.0,ChuPuh,2010,,,
736,BaRia-VungTau,755.0,ConDao,2010,,,
737,HaNoi,1.0,BaDinh,2012,9281584.520744419,105.82643488035444,21.03605364283048
738,HaNoi,3.0,TayHo,2012,26955938.41579715,105.81993949831909,21.070878933888892
739,HaNoi,2.0,HoanKiem,2012,5167693.507109101,105.85369894061861,21.028804252078125
740,HaNoi,4.0,LongBien,2012,59554119.109820314,105.8942125422901,21.041859500724712
741,HaNoi,7.0,HaiBaTrung,2012,9698945.583393607,105.85781374368284,21.005504110294456
742,HaNoi,8.0,HoangMai,2012,40064008.77363807,105.8632570205197,20.974371010489197
743,HaNoi,6.0,DongDa,2012,10041584.330995208,105.8251997474931,21.01561331362957
744,HaNoi,9.0,ThanhXuan,2012,9254652.865492543,105.81549930195555,20.994797732619844
745,HaNoi,5.0,CauGiay,2012,12279755.545633053,105.79173437895129,21.0307224082036
746,HaNoi,16.0,SocSon,2012,304967112.8663739,105.83005362683426,21.272708287568364
747,HaNoi,17.0,DongAnh,2012,185680459.07879832,105.84020069165476,21.136775273986643
748,HaNoi,18.0,GiaLam,2012,117252526.30682671,105.9505516740597,21.029026970261942
749,HaNoi,19.0,TuLiem,2012,,,
750,HaNoi,20.0,ThanhTri,2012,63297180.364161894,105.84107734033148,20.932688359373618
751,HaiPhong,303.0,HongBang,2012,14971654.794163713,106.64800706136907,20.872142302354465
752,HaiPhong,304.0,NgoQuyen,2012,10975568.682261912,106.70101354985748,20.857040617063234
753,HaiPhong,306.0,HaiAn,2012,82500591.15279256,106.75672896673792,20.82219700193571
754,HaiPhong,305.0,LeChan,2012,11767891.208960498,106.67904812044219,20.835921643803747
755,HaiPhong,307.0,KienAn,2012,29369179.39104146,106.63909128987342,20.804427512031975
756,HaiPhong,308.0,DoSon,2012,78625.64433992795,106.81559657577053,20.66738704853194
757,HaiPhong,309.0,DuongKinh,2012,46340646.51372934,106.71362880461831,20.78153544953365
758,HaiPhong,311.0,ThuyNguyen,2012,261625241.0296797,106.67550305263474,20.947433276249726
759,HaiPhong,312.0,AnDuong,2012,103820243.21946557,106.59147210458319,20.88048008947507
760,HaiPhong,313.0,AnLao,2012,118353350.95119171,106.561071143702,20.80306973309113
761,HaiPhong,314.0,KienThuy,2012,104363291.9405128,106.67312914397674,20.73393402870382
762,HaiPhong,315.0,TienLang,2012,186395852.18744147,106.595197565991,20.695568298661904
763,HaiPhong,316.0,VinhBao,2012,182883226.1825325,106.4941585946526,20.67462757492043
764,VinhPhuc,243.0,VinhYen,2012,50863061.57656301,105.59629045418514,21.305782963663702
765,VinhPhuc,244.0,PhucYen,2012,118077932.01699454,105.72960472186604,21.322392819726318
766,VinhPhuc,246.0,LapThach,2012,172321628.7631255,105.47817219534593,21.421865779162214
767,VinhPhuc,253.0,SongLo,2012,150266395.80049387,105.39639816272586,21.43928086758526
768,VinhPhuc,248.0,TamDao,2012,234774546.21625116,105.59330275485861,21.460980375023507
769,VinhPhuc,247.0,TamDuong,2012,107967109.8744071,105.55442045093794,21.365327064529048
770,VinhPhuc,249.0,BinhXuyen,2012,148407855.45978022,105.66598568907571,21.31954345569419
771,VinhPhuc,252.0,VinhTuong,2012,141250141.26170963,105.49863429103927,21.242365416069163
772,VinhPhuc,251.0,YenLac,2012,105823435.58373427,105.57608706170352,21.220377166598176
773,HaNoi,250.0,MeLinh,2012,141675471.29555374,105.70616517707252,21.18340027983824
774,HaNoi,268.0,HaDong,2012,48777917.10910973,105.75697760148496,20.95363535109767
775,HaNoi,269.0,SonTay,2012,117481328.08262183,105.47962741380881,21.09686456638663
776,HaNoi,271.0,BaVi,2012,420084036.6839357,105.3829096760506,21.14122866281319
777,HaNoi,272.0,PhucTho,2012,119092939.7741028,105.58364926452899,21.11708540853383
778,HaNoi,273.0,DanPhuong,2012,78065737.51763983,105.67684845202395,21.113834991172347
779,HaNoi,276.0,ThachThat,2012,185908646.6710156,105.53081744912673,21.018858778391433
780,HaNoi,274.0,HoaiDuc,2012,84997914.46034466,105.69927684721273,21.02408870677492
781,HaNoi,275.0,QuocOai,2012,150860244.45047832,105.59792335216578,20.96765245882345
782,HaNoi,277.0,ChuongMy,2012,238225653.14486453,105.66045376815899,20.8771436718832
783,HaNoi,278.0,ThanhOai,2012,124535471.21774635,105.78103624927847,20.855892983479677
784,HaNoi,279.0,ThuongTin,2012,130327634.48715837,105.87504664753078,20.84484816134543
785,HaNoi,282.0,MyDuc,2012,225233484.70337525,105.7203975464489,20.686921413750284
786,HaNoi,281.0,UngHoa,2012,187994937.47136393,105.79929147586064,20.712099472442883
787,HaNoi,280.0,PhuXuyen,2012,172797512.16642687,105.90094282918459,20.73576482389806
788,BacNinh,256.0,BacNinh,2012,82518871.73365028,106.07411651808428,21.170586564426582
789,BacNinh,258.0,YenPhong,2012,97069735.03410126,105.97358846948903,21.20802421682677
790,BacNinh,259.0,QueVo,2012,153945109.03247556,106.1787615584677,21.14087587162313
791,BacNinh,260.0,TienDu,2012,96318934.92138536,106.03286061519819,21.114982459494087
792,BacNinh,261.0,TuSon,2012,60588335.53038195,105.95949091644806,21.12653072544707
793,BacNinh,262.0,ThuanThanh,2012,117379522.15709823,106.07648388617717,21.03719980196676
794,BacNinh,264.0,LuongTai,2012,105397843.26144978,106.22603931750065,21.022606309457036
795,BacNinh,263.0,GiaBinh,2012,107664775.91709293,106.20879746983556,21.07527255262111
796,HaiDuong,288.0,HaiDuong,2012,72789127.9559933,106.32824214441953,20.93972030548812
797,HaiDuong,290.0,ChiLinh,2012,282966527.86234874,106.40088304084581,21.13441296219918
798,HaiDuong,291.0,NamSach,2012,110818403.34709932,106.33686509469585,21.014719188041273
799,HaiDuong,294.0,ThanhHa,2012,159473379.713704,106.43218491707036,20.89504632917313
800,HaiDuong,292.0,KinhMon,2012,165975930.88106266,106.50838561453497,21.01478965784674
801,HaiDuong,293.0,KimThanh,2012,114727834.89743575,106.4887371060135,20.93597364370658
802,HaiDuong,297.0,GiaLoc,2012,113961633.66988616,106.28855539932347,20.850664295661996
803,HaiDuong,298.0,TuKy,2012,172446805.2744599,106.40715232808847,20.808573788119453
804,HaiDuong,295.0,CamGiang,2012,109884489.68725255,106.21509282837033,20.954606376989513
805,HaiDuong,296.0,BinhGiang,2012,106324665.3034866,106.188521668947,20.873684416652573
806,HaiDuong,300.0,ThanhMien,2012,124139317.78373629,106.21595089709885,20.780445405487708
807,HaiDuong,299.0,NinhGiang,2012,136324058.4844398,106.33410008616022,20.747530745510662
808,HungYen,323.0,HungYen,2012,70456876.29340322,106.06398999123483,20.657772173279977
809,HungYen,325.0,VanLam,2012,74769731.85359813,106.04267558492931,20.97778377323897
810,HungYen,328.0,MyHao,2012,79183353.52247298,106.09989002376749,20.93101165633819
811,HungYen,327.0,YenMy,2012,92097335.0793888,106.0276818908002,20.891456058341024
812,HungYen,326.0,VanGiang,2012,72203011.67662974,105.94892486654358,20.93246824177382
813,HungYen,330.0,KhoaiChau,2012,130400858.7401075,105.97303523575417,20.825105970266232
814,HungYen,329.0,AnThi,2012,129149714.81948113,106.1030370151928,20.813289874461084
815,HungYen,331.0,KimDong,2012,104865499.58549653,106.03274460489449,20.746213102563477
816,HungYen,333.0,PhuCu,2012,94642378.82603396,106.19071566116087,20.71356945636416
817,HungYen,332.0,TienLu,2012,78631682.34647402,106.13059158804735,20.683371175442307
818,HaNam,347.0,PhuLy,2012,87398580.6918187,105.93238207982746,20.545806238055015
819,HaNam,349.0,DuyTien,2012,122561179.96923617,105.97194746567881,20.637453832441206
820,HaNam,350.0,KimBang,2012,176440069.28525415,105.8468950538849,20.573067209611057
821,HaNam,353.0,LyNhan,2012,166662177.52462342,106.0913907997306,20.558777663440356
822,HaNam,351.0,ThanhLiem,2012,164708014.27273506,105.9195104783062,20.453750445872206
823,HaNam,352.0,BinhLuc,2012,143699970.39501238,106.03756892956591,20.491743288062104
824,NamDinh,356.0,NamDinh,2012,263443.15769538184,106.20861138768946,20.38893625443008
825,NamDinh,359.0,VuBan,2012,152994247.00894767,106.09584499700125,20.374479968309753
826,NamDinh,358.0,MyLoc,2012,74430163.40397581,106.13461003051637,20.456961084556372
827,NamDinh,360.0,YYen,2012,245699900.93482164,106.02433314748419,20.32204637959257
828,NamDinh,362.0,NamTruc,2012,164690014.7288295,106.21239832067583,20.339063065588252
829,NamDinh,363.0,TrucNinh,2012,143181891.42181456,106.24784455530425,20.247176753616607
830,NamDinh,364.0,XuanTruong,2012,115962278.75910413,106.35476399336234,20.301795857060657
831,NamDinh,365.0,GiaoThuy,2012,209803529.22639543,106.46895025328185,20.249924120156308
832,NamDinh,361.0,NghiaHung,2012,204489659.65162537,106.15646938544725,20.1069305516613
833,NamDinh,366.0,HaiHau,2012,227931613.00702637,106.26925663358296,20.149979190371802
834,ThaiBinh,336.0,ThaiBinh,2012,68043659.53199793,106.34734612081833,20.454029325162576
835,ThaiBinh,338.0,QuynhPhu,2012,210114622.15094683,106.36340309442718,20.64966007053206
836,ThaiBinh,339.0,HungHa,2012,213880787.1805209,106.20952853043491,20.5977502998766
837,ThaiBinh,341.0,ThaiThuy,2012,282662437.7598334,106.53003715496337,20.545160734097756
838,ThaiBinh,340.0,DongHung,2012,199390703.39549923,106.34888343267284,20.543521218685868
839,ThaiBinh,344.0,VuThu,2012,196849093.04353398,106.27685546835016,20.434362570093143
840,ThaiBinh,343.0,KienXuong,2012,201741144.99736357,106.42892883136098,20.39805280634722
841,ThaiBinh,342.0,TienHai,2012,235949646.4460042,106.54101661185987,20.370896583438245
842,NinhBinh,369.0,NinhBinh,2012,46780755.02127601,105.97190369223124,20.24648641813665
843,NinhBinh,370.0,TamDiep,2012,104552180.30890377,105.8917477538039,20.156536215173467
844,NinhBinh,372.0,NhoQuan,2012,451157336.82138807,105.74401603383693,20.29116017892386
845,NinhBinh,373.0,GiaVien,2012,176752051.81436646,105.86187462952093,20.34160677200454
846,NinhBinh,374.0,HoaLu,2012,102871163.90109423,105.928428709532,20.253786330990266
847,NinhBinh,377.0,YenMo,2012,148755415.36734587,105.99584193459404,20.128992227211555
848,NinhBinh,375.0,YenKhanh,2012,142433467.2171931,106.08767108800417,20.189610198276377
849,NinhBinh,376.0,KimSon,2012,169657869.97888896,106.08948125319257,20.057353946548616
850,HaGiang,24.0,HaGiang,2012,134686869.84923053,104.9671590287475,22.820075391954123
851,HaGiang,26.0,DongVan,2012,453936035.030289,105.26902866366358,23.236512007560407
852,HaGiang,27.0,MeoVac,2012,561165336.1835634,105.42824105059306,23.13728456872518
853,HaGiang,28.0,YenMinh,2012,784299415.5955331,105.19252481128515,23.058943942222584
854,HaGiang,29.0,QuanBa,2012,532047233.9431775,104.97061421858675,23.063722756285465
855,HaGiang,31.0,BacMe,2012,846016133.2449626,105.2868488600304,22.750416946311038
856,HaGiang,32.0,HoangSuPhi,2012,633333722.4045995,104.68683147204898,22.69837334308427
857,HaGiang,30.0,ViXuyen,2012,1500197814.3824778,104.96398376399851,22.759230878049582
858,HaGiang,33.0,XinMan,2012,582517263.0534703,104.50934805886173,22.635328291344507
859,HaGiang,34.0,BacQuang,2012,1093608751.6594913,104.90525203537,22.400814963409587
860,CaoBang,40.0,CaoBang,2012,108180105.07067162,106.25717259909051,22.6537188489249
861,CaoBang,43.0,BaoLac,2012,917188873.0581542,105.71236831994877,22.892618473418928
862,CaoBang,42.0,BaoLam,2012,912822770.4253982,105.49012732249021,22.866806042894364
863,CaoBang,45.0,HaQuang,2012,451668991.89524,106.11432220277872,22.907609123296524
864,CaoBang,44.0,ThongNong,2012,358115167.1504985,105.94758625255493,22.819065320862478
865,CaoBang,46.0,TraLinh,2012,252708837.50685805,106.3250454582741,22.819974954341987
866,CaoBang,47.0,TrungKhanh,2012,466764617.49460334,106.55548166854035,22.833957468240726
867,CaoBang,52.0,NguyenBinh,2012,838193680.9716434,105.93189437573845,22.630238358712173
868,CaoBang,51.0,HoaAn,2012,605715634.12375,106.19614538509242,22.698757224761707
869,CaoBang,49.0,QuangUyen,2012,384293115.51316667,106.44209610355931,22.675418264469528
870,CaoBang,48.0,HaLang,2012,458674104.4432074,106.68329874333249,22.71274364632277
871,CaoBang,53.0,ThachAn,2012,688575053.0341438,106.32401749651159,22.470232079326262
872,LaoCai,80.0,LaoCai,2012,226306883.33865124,103.98026713143369,22.411798510876817
873,LaoCai,83.0,MuongKhuong,2012,553108375.4690212,104.13374630095707,22.67898017021898
874,LaoCai,82.0,BatXat,2012,1052163131.7263879,103.71744944796635,22.56649820047716
875,LaoCai,84.0,SiMaCai,2012,231734003.4358737,104.26536147018345,22.6678209805015
876,LaoCai,85.0,BacHa,2012,685138475.0190117,104.3212534702086,22.498627665080953
877,LaoCai,86.0,BaoThang,2012,680376143.092266,104.13884038807275,22.373857704207413
878,LaoCai,88.0,SaPa,2012,680649259.2062479,103.91011243218163,22.292742359813477
879,LaoCai,87.0,BaoYen,2012,825535456.3135096,104.43951212141712,22.27337069028397
880,LaoCai,89.0,VanBan,2012,1421242877.5748599,104.18833065478047,22.052422294673676
881,BacKan,58.0,BacKan,2012,137175740.5011722,105.84665665170775,22.134105125933548
882,BacKan,61.0,BaBe,2012,683178759.9420328,105.74052435966934,22.40647157878176
883,BacKan,60.0,PacNam,2012,476827643.3724658,105.66714190958157,22.604070035611155
884,BacKan,62.0,NganSon,2012,645513518.395759,106.00247728417764,22.419559496674797
885,BacKan,64.0,ChoDon,2012,911226401.291994,105.57411545752342,22.18728200107852
886,BacKan,66.0,NaRi,2012,853448221.782647,106.0906338907229,22.165404311618772
887,BacKan,63.0,BachThong,2012,546450307.6096871,105.84558935156448,22.205013733868842
888,BacKan,65.0,ChoMoi,2012,605241331.1189243,105.84969661389538,21.983320986783422
889,LangSon,178.0,LangSon,2012,78961627.21351284,106.74329994369212,21.849799599811515
890,LangSon,180.0,TrangDinh,2012,1016245072.3286823,106.4478752405651,22.29342484386777
891,LangSon,182.0,VanLang,2012,564712595.9358767,106.58463326455454,22.056140109199333
892,LangSon,181.0,BinhGia,2012,1093288998.2913034,106.30851527866238,22.056917448724896
893,LangSon,185.0,BacSon,2012,699509437.0057136,106.26603120344554,21.82625889386335
894,LangSon,184.0,VanQuan,2012,548544299.173677,106.53458618057653,21.838828308690168
895,LangSon,183.0,CaoLoc,2012,554327880.7114584,106.84100497185099,21.899816829855457
896,LangSon,188.0,LocBinh,2012,985369852.0624975,106.94206417942586,21.688311245264714
897,LangSon,187.0,ChiLang,2012,703846667.6280153,106.61690360320516,21.668915134165427
898,LangSon,189.0,DinhLap,2012,1188177841.4994664,107.13431107894398,21.5363965464516
899,LangSon,186.0,HuuLung,2012,807482467.8107176,106.3407374804828,21.5609632389204
900,TuyenQuang,70.0,TuyenQuang,2012,119165685.13722543,105.2263754121395,21.78167159507218
901,TuyenQuang,72.0,NaHang,2012,864974893.1500037,105.43228661775723,22.445181081743886
902,TuyenQuang,71.0,LamBinh,2012,785197735.0161774,105.22760882318624,22.503561216863034
903,TuyenQuang,73.0,ChiemHoa,2012,1274379788.199343,105.27056957085954,22.173931385983813
904,TuyenQuang,74.0,HamYen,2012,900558985.8721138,105.01689513958709,22.100700404671183
905,TuyenQuang,75.0,YenSon,2012,1131899410.0601072,105.28861376015031,21.879899176771218
906,TuyenQuang,76.0,SonDuong,2012,786473389.8071645,105.38817208333752,21.65417188839344
907,YenBai,132.0,YenBai,2012,107504198.49584228,104.89470133505834,21.707757744461748
908,YenBai,133.0,NghiaLo,2012,30464653.281095047,104.49349163108558,21.595297757894826
909,YenBai,135.0,LucYen,2012,808238675.3281912,104.721575881091,22.09824721901529
910,YenBai,136.0,VanYen,2012,1395519237.9745238,104.55231763749897,21.907290546172202
911,YenBai,137.0,MuCangChai,2012,1196992489.7006052,104.12713344686433,21.795366082202595
912,YenBai,138.0,TranYen,2012,627548500.4687473,104.78929861973074,21.678250294534898
913,YenBai,141.0,YenBinh,2012,772802387.6369236,104.94385001883398,21.865088892544986
914,YenBai,140.0,VanChan,2012,1200523997.9188843,104.62148630426239,21.565743273101564
915,YenBai,139.0,TramTau,2012,742730858.9077449,104.43907543091413,21.499422798953727
916,ThaiNguyen,164.0,ThaiNguyen,2012,222709141.24764362,105.8132563905151,21.578977871818612
917,ThaiNguyen,165.0,SongCong,2012,97421904.12886973,105.83234865666054,21.49305020508884
918,ThaiNguyen,167.0,DinhHoa,2012,512779549.41650707,105.62967256804951,21.900535816678524
919,ThaiNguyen,170.0,VoNhai,2012,839107182.4893018,106.04008947268308,21.77873053621415
920,ThaiNguyen,168.0,PhuLuong,2012,352999953.4684364,105.72612855518065,21.770322089546383
921,ThaiNguyen,169.0,DongHy,2012,429381967.51775455,105.91387303633888,21.67572699287949
922,ThaiNguyen,171.0,DaiTu,2012,566009482.7087312,105.6181299135974,21.623835017755344
923,ThaiNguyen,173.0,PhuBinh,2012,240769838.65806237,105.9696025145033,21.487580736390264
924,ThaiNguyen,172.0,PhoYen,2012,259130273.4653671,105.81123164043059,21.434448530330993
925,PhuTho,227.0,VietTri,2012,115966343.0523088,105.37442257874964,21.332327106698052
926,PhuTho,228.0,PhuTho,2012,64980686.10882071,105.23498968535978,21.417782209790428
927,PhuTho,230.0,DoanHung,2012,302729657.9858654,105.15351766973168,21.61829749804215
928,PhuTho,231.0,HaHoa,2012,342428264.4283491,104.9996538746932,21.57342352587492
929,PhuTho,232.0,ThanhBa,2012,195435040.33559304,105.15938631563729,21.46915525609406
930,PhuTho,233.0,PhuNinh,2012,156983671.5524588,105.30286050001955,21.456056487167398
931,PhuTho,237.0,LamThao,2012,99482388.90747644,105.30188232725443,21.31749898210056
932,PhuTho,235.0,CamKhe,2012,232553766.94917345,105.09398468650188,21.40232600873371
933,PhuTho,234.0,YenLap,2012,437759439.0285063,105.00728017791532,21.361770099773928
934,PhuTho,236.0,TamNong,2012,153900989.60230783,105.23909854720677,21.290323508113953
935,PhuTho,239.0,ThanhThuy,2012,124485195.87230083,105.28357236537467,21.141281024458134
936,PhuTho,238.0,ThanhSon,2012,620131970.818506,105.18953281385173,21.065098156097587
937,PhuTho,240.0,TanSon,2012,687461074.1275388,104.97597592577547,21.186375169552882
938,BacGiang,213.0,BacGiang,2012,66697830.59032095,106.19658681693883,21.274519297798047
939,BacGiang,215.0,YenThe,2012,306263984.868076,106.1342426067358,21.519303222583382
940,BacGiang,216.0,TanYen,2012,208025019.9837829,106.10327319169565,21.386313638871776
941,BacGiang,219.0,LucNgan,2012,1028830924.124074,106.64072080848773,21.43712941522374
942,BacGiang,223.0,HiepHoa,2012,206261145.6159268,105.96767349321617,21.324527274292674
943,BacGiang,217.0,LangGiang,2012,243978343.2060645,106.25353904032329,21.375256660431305
944,BacGiang,220.0,SonDong,2012,860729090.3053541,106.85389384972879,21.309589155309958
945,BacGiang,218.0,LucNam,2012,609154449.7899163,106.46399065283225,21.282232617351188
946,BacGiang,222.0,VietYen,2012,171139578.11357874,106.09031514021476,21.27326848956849
947,BacGiang,221.0,YenDung,2012,191846094.24798247,106.2525467278388,21.208521693772635
948,QuangNinh,193.0,HaLong,2012,230.3984274638581,106.95279999995289,20.91886666669054
949,QuangNinh,195.0,CamPha,2012,152421.03192717925,107.21480310570435,20.950867200002776
950,QuangNinh,196.0,UongBi,2012,254935649.35951754,106.7654809496196,21.074583230007384
951,QuangNinh,194.0,MongCai,2012,41187073.661266245,107.91769153599263,21.373895425638754
952,QuangNinh,198.0,BinhLieu,2012,471862267.6433272,107.44082713423401,21.547078617164065
953,QuangNinh,201.0,HaiHa,2012,2351630.0309346113,107.7671163426291,21.29110608649422
954,QuangNinh,200.0,DamHa,2012,87039.24612470425,107.61573640004273,21.229060625674983
955,QuangNinh,199.0,TienYen,2012,653312106.5340052,107.37231073859523,21.371312731796742
956,QuangNinh,203.0,VanDon,2012,98363.37427707537,107.37724014996022,20.750577986585125
957,QuangNinh,204.0,HoanhBo,2012,843496013.9666951,107.0351717243274,21.111569391341103
958,QuangNinh,205.0,DongTrieu,2012,395848575.4691037,106.58643612163053,21.11155386629391
959,QuangNinh,206.0,QuangYen,2012,518.4009492929039,106.9513000000657,20.917400000054496
960,LaiChau,107.0,MuongTe,2012,2679026582.1206656,102.64778381592384,22.469308909684433
961,LaiChau,109.0,PhongTho,2012,1027068731.1616101,103.3641096356093,22.591322564080517
962,LaiChau,106.0,TamDuong,2012,683445584.7181817,103.59804631604148,22.338317946635335
963,LaiChau,105.0,LaiChau,2012,70318250.52453685,103.4496753212419,22.39218582798374
964,LaiChau,108.0,SinHo,2012,1519764451.0647154,103.33286185396048,22.257664917506293
965,LaiChau,111.0,TanUyen,2012,897990142.3319323,103.73243600133688,22.121956097833845
966,LaiChau,110.0,ThanUyen,2012,790738580.5324279,103.83807734153947,21.89331565387127
967,DienBien,94.0,DienBienPhu,2012,63960156.62095306,103.04495825854886,21.4057573221222
968,DienBien,95.0,MuongLay,2012,116000243.51740652,103.13070820930818,22.032610852182756
969,DienBien,96.0,MuongNhe,2012,1556776226.7672622,102.45242592871769,22.234249392250153
970,DienBien,98.0,TuaChua,2012,680385965.3557342,103.3718624344764,21.966555230724396
971,DienBien,97.0,MuongCha,2012,1192011036.8587866,103.12339414903009,21.835570571972394
972,DienBien,99.0,TuanGiao,2012,1134779252.7251287,103.396266821806,21.66994141371769
973,DienBien,100.0,DienBien,2012,1623897966.5440872,103.05723185279977,21.25103880629814
974,DienBien,101.0,DienBienDong,2012,1198867099.1603656,103.25907349775599,21.241302458177785
975,DienBien,102.0,MuongAng,2012,444751550.0757224,103.25394788448324,21.517788645157445
976,SonLa,116.0,SonLa,2012,323155463.63605493,103.90809007724731,21.341900420259062
977,SonLa,120.0,MuongLa,2012,1423848857.8788772,104.0703000433941,21.539164112666413
978,SonLa,119.0,ThuanChau,2012,1533547268.8252265,103.65442636020754,21.41912665881399
979,SonLa,121.0,BacYen,2012,1096386628.0702803,104.38952654904294,21.246782116405694
980,SonLa,122.0,PhuYen,2012,1232732223.632673,104.68945242389037,21.205087070070686
981,SonLa,125.0,MaiSon,2012,1425638593.202856,104.01714609417422,21.169635656929444
982,SonLa,126.0,SongMa,2012,1643319741.2722535,103.69356881097836,21.072365832778036
983,SonLa,124.0,YenChau,2012,853475697.5175414,104.32916016905197,20.99540417131712
984,SonLa,123.0,MocChau,2012,1076459514.4418802,104.62092732812576,20.881089254084845
985,HoaBinh,148.0,HoaBinh,2012,144318990.5680303,105.33371555484747,20.83265962361357
986,HoaBinh,150.0,DaBac,2012,778734533.2961084,105.09369235970372,20.909199378839702
987,HoaBinh,156.0,MaiChau,2012,559841538.2623228,105.01440646185135,20.691205462856317
988,HoaBinh,151.0,KySon,2012,205438427.2542183,105.39411471027591,20.919785394013168
989,HoaBinh,152.0,LuongSon,2012,362683092.26562995,105.56282532448805,20.800054916943765
990,HoaBinh,154.0,CaoPhong,2012,255014120.96766582,105.31996049871523,20.6975944904669
991,HoaBinh,153.0,KimBoi,2012,550704117.0719961,105.51657701669876,20.678241736747292
992,HoaBinh,159.0,LacThuy,2012,311176885.91508794,105.73331607209317,20.50346049376188
993,HoaBinh,155.0,TanLac,2012,532638182.16595846,105.23589250776078,20.605409723412254
994,HoaBinh,157.0,LacSon,2012,587292936.5643071,105.44106418844734,20.483547904022416
995,HoaBinh,158.0,YenThuy,2012,287558479.80445105,105.62693738327717,20.421920830128617
996,ThanhHoa,380.0,ThanhHoa,2012,146539272.5715206,105.78784872513677,19.806321788847544
997,ThanhHoa,381.0,BimSon,2012,63612347.2997425,105.88083628843212,20.085785921150524
998,ThanhHoa,382.0,SamSon,2012,44630036.19622977,105.87697207424341,19.745187360113956
999,ThanhHoa,385.0,QuanHoa,2012,993341845.8640279,104.9466523387375,20.465515312599514
1000,ThanhHoa,387.0,QuanSon,2012,931163633.5631979,104.84588430749342,20.27104738120299
1001,ThanhHoa,386.0,BaThuoc,2012,774915214.5706183,105.23202499874436,20.355479427313416
1002,ThanhHoa,390.0,CamThuy,2012,424886124.06955934,105.46150549198956,20.199299425958298
1003,ThanhHoa,391.0,ThachThanh,2012,558643624.3273724,105.62195479609115,20.210902592102684
1004,ThanhHoa,389.0,NgocLac,2012,493643556.24263275,105.37114342429396,20.06136741757206
1005,ThanhHoa,396.0,ThuongXuan,2012,1107305652.5515282,105.20351242921332,19.8996319705052
1006,ThanhHoa,402.0,NhuXuan,2012,713902569.3477881,105.37117068255574,19.616859369707964
1007,ThanhHoa,403.0,NhuThanh,2012,598890783.1501001,105.55908324112673,19.585734944016004
1008,ThanhHoa,393.0,VinhLoc,2012,156896340.97125778,105.6640661727047,20.04622660838933
1009,ThanhHoa,392.0,HaTrung,2012,227521350.21976697,105.82561679241795,20.03809018674333
1010,ThanhHoa,401.0,NgaSon,2012,151732140.94587883,105.987193988314,20.013219037719804
1011,ThanhHoa,394.0,YenDinh,2012,234601264.1722661,105.60494477960997,20.000062975065937
1012,ThanhHoa,395.0,ThoXuan,2012,283411867.56065506,105.4819551804148,19.922303627744466
1013,ThanhHoa,400.0,HauLoc,2012,139270607.61992756,105.88842294960573,19.935492456540867
1014,ThanhHoa,398.0,ThieuHoa,2012,159229265.1079891,105.67409928099075,19.898361870651243
1015,ThanhHoa,399.0,HoangHoa,2012,201073261.46829864,105.85912336600407,19.857119364470034
1016,ThanhHoa,405.0,DongSon,2012,82338990.85300145,105.70458623740657,19.799061151885763
1017,ThanhHoa,397.0,TrieuSon,2012,289212851.5395775,105.57191675852381,19.809806555279962
1018,ThanhHoa,406.0,QuangXuong,2012,176118324.72330183,105.78171165113731,19.679745999624878
1019,ThanhHoa,404.0,NongCong,2012,284379182.0344395,105.67629345582151,19.6180808570182
1020,ThanhHoa,407.0,TinhGia,2012,7847.751130298915,105.90936666789862,19.31923333407703
1021,NgheAn,412.0,Vinh,2012,105287632.15035215,105.68658690440172,18.697766657061877
1022,NgheAn,413.0,CuaLo,2012,25051387.024363264,105.7255751581472,18.788358322781928
1023,NgheAn,415.0,QuePhong,2012,1882249339.7277176,104.89472962882063,19.705649021625792
1024,NgheAn,416.0,QuyChau,2012,1057101632.1712383,105.08177793200753,19.54020726385515
1025,NgheAn,417.0,KySon,2012,2087383277.5421114,104.21133735955048,19.432147009260056
1026,NgheAn,420.0,QuyHop,2012,942200175.1081823,105.15596792256792,19.32243339207484
1027,NgheAn,419.0,NghiaDan,2012,612158311.5402625,105.42504369024884,19.357131459155195
1028,NgheAn,418.0,TuongDuong,2012,2805118130.882923,104.56731525340581,19.30366536660226
1029,NgheAn,421.0,QuynhLuu,2012,443786222.0682744,105.60442845234975,19.20853547596648
1030,NgheAn,423.0,TanKy,2012,729241985.7058605,105.21796563042096,19.111591463152102
1031,NgheAn,422.0,ConCuong,2012,1742240227.9039574,104.81868781287568,19.023608524656847
1032,NgheAn,426.0,YenThanh,2012,551061142.8277907,105.44159761982844,19.02296593973264
1033,NgheAn,425.0,DienChau,2012,302988885.4790185,105.57565905342317,19.001471456005312
1034,NgheAn,424.0,AnhSon,2012,599663884.5152328,105.05796196823107,18.950009250359166
1035,NgheAn,427.0,DoLuong,2012,353232714.7574099,105.34446666271597,18.89761811089111
1036,NgheAn,428.0,ThanhChuong,2012,1121691545.288744,105.23936450322803,18.739551239104383
1037,NgheAn,429.0,NghiLoc,2012,347885268.7112989,105.60405842015048,18.811307644218914
1038,NgheAn,430.0,NamDan,2012,292306883.5390808,105.52140513235612,18.68005417588533
1039,NgheAn,431.0,HungNguyen,2012,157912113.14417556,105.62279829740955,18.66629907825379
1040,NgheAn,414.0,ThaiHoa,2012,134578672.06850946,105.44566838215442,19.289649267614305
1041,HaTinh,436.0,HaTinh,2012,56617688.831179984,105.90298013964738,18.355119943493886
1042,HaTinh,437.0,HongLinh,2012,60115999.40842781,105.70899301733898,18.530891428686566
1043,HaTinh,442.0,NghiXuan,2012,219362964.1915055,105.76548027621162,18.620196909440754
1044,HaTinh,440.0,DucTho,2012,201780517.6016973,105.60620094169279,18.49522466393557
1045,HaTinh,439.0,HuongSon,2012,1095340622.9488063,105.30640235156798,18.478125215304438
1046,HaTinh,443.0,CanLoc,2012,300558601.5134508,105.73332644462548,18.440114483489964
1047,HaTinh,445.0,ThachHa,2012,245036054.74894196,105.83713647233547,18.32311324425738
1048,HaTinh,446.0,CamXuyen,2012,636983743.9635295,106.0057555988317,18.194491989523364
1049,HaTinh,444.0,HuongKhe,2012,1257777656.4748259,105.67945383016969,18.177163773831417
1050,HaTinh,447.0,KyAnh,2012,758116949.5928264,106.18093199548323,18.064754551155517
1051,HaTinh,447.0,KyAnh,2012,278059142.62297684,106.36660462434328,18.03989597135571
1052,HaTinh,448.0,LocHa,2012,116940753.42263404,105.86457764545995,18.468642228246694
1053,QuangBinh,450.0,DongHoi,2012,155262627.592282,106.57757999994833,17.446632569210202
1054,QuangBinh,453.0,TuyenHoa,2012,1127176538.2211747,106.01030823852926,17.910796148396155
1055,QuangBinh,452.0,MinhHoa,2012,1382110460.4162087,105.88944535855063,17.758466514153973
1056,QuangBinh,454.0,QuangTrach,2012,444081174.2493288,106.37294301981346,17.87495104957373
1057,QuangBinh,455.0,BoTrach,2012,2105466146.4815042,106.27711526559993,17.52204648287821
1058,QuangBinh,456.0,QuangNinh,2012,1197101801.3596542,106.50126958697032,17.274133888587503
1059,QuangBinh,457.0,LeThuy,2012,1399602724.120528,106.70836355204467,17.111845819230023
1060,QuangTri,461.0,DongHa,2012,72937781.3702152,107.08837638552738,16.801249621844224
1061,QuangTri,462.0,QuangTri,2012,74556508.90383744,107.14486020666222,16.67810137328959
1062,QuangTri,464.0,VinhLinh,2012,619245998.1425653,106.9324568680878,17.01523843576948
1063,QuangTri,466.0,GioLinh,2012,473694921.5370905,106.98035971766816,16.904118828330017
1064,QuangTri,468.0,CamLo,2012,343865029.61823565,106.96354986529089,16.790816090374367
1065,QuangTri,469.0,TrieuPhong,2012,353101197.5643183,107.15148877088951,16.776203670960136
1066,QuangTri,470.0,HaiLang,2012,424053163.65547585,107.2495356578401,16.674347540858562
1067,QuangTri,465.0,HuongHoa,2012,1148082485.6146085,106.67635754573706,16.706811911509636
1068,QuangTri,467.0,DaKrong,2012,1102776090.0104625,106.94229974633193,16.570922804252753
1069,ThuaThienHue,474.0,Hue,2012,71273440.69382249,107.57545224093914,16.457784051428064
1070,ThuaThienHue,476.0,PhongDien,2012,952358786.2321831,107.29660284564328,16.52098386433515
1071,ThuaThienHue,477.0,QuangDien,2012,163939512.49599215,107.50104283099688,16.589432536092477
1072,ThuaThienHue,480.0,HuongTra,2012,520230634.6889834,107.48146377119882,16.40135549295001
1073,ThuaThienHue,478.0,PhuVang,2012,279139772.1965914,107.71707495594698,16.460904375680567
1074,ThuaThienHue,479.0,HuongThuy,2012,455470956.8375938,107.61864154442671,16.313141847694496
1075,ThuaThienHue,482.0,PhuLoc,2012,712137236.4150268,107.88363615344883,16.27451685277733
1076,ThuaThienHue,481.0,ALuoi,2012,1226221662.2746303,107.29830049124715,16.235919489103633
1077,ThuaThienHue,483.0,NamDong,2012,647998534.0952117,107.68575757326182,16.12067943151947
1078,DaNang,492.0,HaiChau,2012,22184639.063336033,108.2128444482921,16.052263080867206
1079,DaNang,491.0,ThanhKhe,2012,9437764.455916448,108.19286563602245,16.06204227992819
1080,DaNang,493.0,SonTra,2012,59083226.60481701,108.26360910715445,16.113153202986986
1081,DaNang,494.0,NguHanhSon,2012,39633523.914990984,108.24952966203297,15.997917177949622
1082,DaNang,490.0,LienChieu,2012,80526680.5974426,108.13341438202151,16.121272938168595
1083,DaNang,497.0,HoaVang,2012,738876778.4547086,108.01535047288152,16.065570184973463
1084,DaNang,495.0,CamLe,2012,32825488.544978265,108.19668757849136,16.014846452696222
1085,QuangNam,502.0,TamKy,2012,94402399.69633637,108.49447302163514,15.587114036334633
1086,QuangNam,503.0,HoiAn,2012,47949701.68826784,108.33850201859018,15.884729938838264
1087,QuangNam,505.0,DongGiang,2012,823384702.6031041,107.76473771672096,15.928270051999142
1088,QuangNam,506.0,DaiLoc,2012,579868886.9637535,107.97426925026026,15.842973039143834
1089,QuangNam,507.0,DienBan,2012,217546912.7214691,108.22334521612989,15.90215065963727
1090,QuangNam,508.0,DuyXuyen,2012,311024917.37794745,108.20218224991308,15.799967151316267
1091,QuangNam,513.0,ThangBinh,2012,411786732.0535598,108.37343180186885,15.69088671557884
1092,QuangNam,509.0,QueSon,2012,258341472.69479698,108.24341308531892,15.713359938521656
1093,QuangNam,512.0,HiepDuc,2012,497698853.48459303,108.09575424660011,15.534382829434938
1094,QuangNam,514.0,TienPhuoc,2012,454289204.2189851,108.26905812344576,15.477262588041675
1095,QuangNam,511.0,PhuocSon,2012,1155555635.5542185,107.83739992946948,15.399481128027919
1096,QuangNam,517.0,NuiThanh,2012,555195724.4137858,108.56889504662286,15.433826451359998
1097,QuangNam,515.0,BacTraMy,2012,847164361.3149838,108.2093393960837,15.309666677610965
1098,QuangNam,518.0,PhuNinh,2012,256089652.17772317,108.41320312153906,15.521030928293326
1099,QuangNam,519.0,NongSon,2012,472098516.48028594,107.98763028757392,15.662427039393927
1100,QuangNgai,522.0,QuangNgai,2012,156267893.09508228,108.84196681141056,15.154796816488602
1101,QuangNgai,536.0,LySon,2012,8835075.163952583,109.11783218598846,15.381932088225005
1102,QuangNgai,524.0,BinhSon,2012,21172.172227995736,108.95357266047642,15.193154869839162
1103,QuangNgai,525.0,TraBong,2012,423143899.52569467,108.50620693645695,15.237307178884109
1104,QuangNgai,527.0,SonTinh,2012,242330451.94935307,108.70373591854741,15.196114503444331
1105,QuangNgai,530.0,SonTay,2012,381985414.07873714,108.35707511161054,14.970261179387776
1106,QuangNgai,529.0,SonHa,2012,755858033.9700624,108.52032452010866,14.98443096359571
1107,QuangNgai,528.0,TuNghia,2012,208238094.77001807,108.74160815960732,15.093736921710718
1108,QuangNgai,532.0,NghiaHanh,2012,235463445.93796194,108.77556870875982,14.9807216757297
1109,QuangNgai,533.0,MoDuc,2012,215191172.7188768,108.87965616756846,14.959943583026405
1110,QuangNgai,534.0,DucPho,2012,375905383.5520745,108.96146423903122,14.780522009403994
1111,QuangNgai,535.0,BaTo,2012,1138549696.366849,108.6955294949445,14.726816165051453
1112,BinhDinh,540.0,QuiNhon,2012,4608.692568327759,109.23953333408257,13.66813333375809
1113,BinhDinh,542.0,AnLao,2012,694466811.5986496,108.79791083551841,14.553129611234773
1114,BinhDinh,543.0,HoaiNhon,2012,421409825.1412438,109.02485269676288,14.507719934435231
1115,BinhDinh,544.0,HoaiAn,2012,750419980.8184023,108.89728702708366,14.34609151130813
1116,BinhDinh,545.0,PhuMy,2012,554692326.5759516,109.08683896071858,14.226805140913319
1117,BinhDinh,546.0,VinhThanh,2012,717547408.1785387,108.74367353939378,14.228436351860815
1118,BinhDinh,548.0,PhuCat,2012,680976775.1866679,109.07746845574349,14.052818583139118
1119,BinhDinh,547.0,TaySon,2012,693603943.5804623,108.88306806470679,13.933404088200225
1120,BinhDinh,549.0,AnNhon,2012,244941021.88924533,109.06169897034042,13.870315361680804
1121,BinhDinh,550.0,TuyPhuoc,2012,219780167.42511612,109.16154200429781,13.84417046789847
1122,PhuYen,555.0,TuyHoa,2012,111600816.8761493,109.27400883653695,13.113465094726525
1123,PhuYen,558.0,DongXuan,2012,1038027562.0022823,108.96722811868268,13.43033720312065
1124,PhuYen,557.0,SongCau,2012,179.65130486027977,109.2856000000453,13.532000000019064
1125,PhuYen,559.0,TuyAn,2012,406391907.07627386,109.20983855524317,13.257643375045605
1126,PhuYen,560.0,SonHoa,2012,936466093.2389653,108.9549182455317,13.171220407178435
1127,PhuYen,563.0,PhuHoa,2012,254576510.89270627,109.17959883077361,13.068346771581316
1128,PhuYen,562.0,TayHoa,2012,628935450.3100128,109.16562821358953,12.917737238894857
1129,PhuYen,564.0,DongHoa,2012,720.5615470446317,109.39166666666218,12.824933333350423
1130,PhuYen,561.0,SongHinh,2012,895583330.2002769,108.90866354244277,12.922375739950377
1131,KhanhHoa,568.0,NhaTrang,2012,215884491.10134003,109.16908620983794,12.262731546874235
1132,KhanhHoa,569.0,CamRanh,2012,43531.24736823743,109.22422963933764,11.770079411881587
1133,KhanhHoa,571.0,VanNinh,2012,3125.3506821029814,109.46069999974974,12.565133333507283
1134,KhanhHoa,572.0,NinhHoa,2012,65090.73985286864,109.21805228354995,12.385497998730024
1135,KhanhHoa,574.0,DienKhanh,2012,343605983.1161848,109.03884501413016,12.275080554197704
1136,KhanhHoa,573.0,KhanhVinh,2012,1166920914.00029,108.84097892530966,12.312331793792133
1137,KhanhHoa,575.0,KhanhSon,2012,339859418.08943546,108.9044898886796,12.030286199430632
1138,KhanhHoa,570.0,CamLam,2012,560589484.1028999,109.08063910453602,12.080860270181415
1139,KonTum,608.0,KonTum,2012,429243640.3986183,107.97510760471087,14.342080679862088
1140,KonTum,610.0,DakGlei,2012,1494555659.637952,107.7242728279424,15.091968102336384
1141,KonTum,611.0,NgocHoi,2012,834516432.1336583,107.64453471396364,14.721548226192281
1142,KonTum,612.0,DakTo,2012,509583850.16554874,107.81696899954008,14.693172960943919
1143,KonTum,614.0,KonRay,2012,917760315.6189252,108.18787705664357,14.542166542673254
1144,KonTum,613.0,KonPlong,2012,1375070249.3630383,108.31561815063951,14.767620036171776
1145,KonTum,615.0,DakHa,2012,846102308.9475961,107.99228512843665,14.601862982076605
1146,KonTum,616.0,SaThay,2012,1232857860.922119,107.70980520744982,14.401328386356955
1147,GiaLai,622.0,Pleiku,2012,261305406.5884468,107.99244617016079,13.951483502122558
1148,GiaLai,625.0,KBang,2012,1838317361.4584532,108.50080104124831,14.306517430794846
1149,GiaLai,626.0,DakDoa,2012,987139940.5937706,108.173178476732,14.088764633026168
1150,GiaLai,629.0,MangYang,2012,1127957751.427181,108.30847209173008,13.948612016077837
1151,GiaLai,627.0,ChuPah,2012,981101454.6573738,107.95469953465157,14.193027775321589
1152,GiaLai,628.0,IaGrai,2012,1121687689.0480049,107.7250533224466,13.976258575293194
1153,GiaLai,623.0,AnKhe,2012,199886792.59461844,108.69567093935464,14.014905171157903
1154,GiaLai,634.0,DakPo,2012,503475642.41884094,108.60199698207528,13.929266537030209
1155,GiaLai,630.0,KongChro,2012,1444897295.8174913,108.59073921244352,13.745244676576931
1156,GiaLai,631.0,DucCo,2012,719426085.8103293,107.65686493396666,13.78128545991364
1157,GiaLai,632.0,ChuProng,2012,1702193606.4726157,107.81096329856341,13.59595785328157
1158,GiaLai,633.0,ChuSe,2012,644772710.8672293,108.12054851575402,13.70695982357498
1159,GiaLai,639.0,ChuPuh,2012,720207534.7269434,108.0738164730243,13.498182877054347
1160,GiaLai,635.0,IaPa,2012,868009197.9659508,108.52476116298948,13.531470349065675
1161,GiaLai,638.0,PhuThien,2012,504627012.1818249,108.31263142098122,13.495155306590101
1162,GiaLai,624.0,AyunPa,2012,287312868.8439179,108.41535603432946,13.331233859893654
1163,GiaLai,637.0,KrongPa,2012,1623513847.052601,108.65632056594919,13.233183804647643
1164,DakLak,643.0,BuonMaThuot,2012,379134148.12776613,108.02921932439943,12.658041965336729
1165,DakLak,645.0,EaH'leo,2012,1340353226.2286482,108.17543743761496,13.24117975053202
1166,DakLak,646.0,EaSup,2012,1767504882.6148067,107.79770083557978,13.187808238524953
1167,DakLak,650.0,KrongNang,2012,610004937.5400819,108.39350752556878,13.01679218359956
1168,DakLak,649.0,KrongBuk,2012,358161468.8322909,108.20427462133222,13.027537162718652
1169,DakLak,644.0,BuonHo,2012,283704787.16083044,108.2794692077283,12.849193766376942
1170,DakLak,647.0,BuonDon,2012,1406949824.2307706,107.72896850052389,12.901925625841647
1171,DakLak,648.0,CuM'gar,2012,824558900.553415,108.07297006512655,12.885094875643736
1172,DakLak,651.0,EaKar,2012,1037083355.2202724,108.55841663795995,12.804291290662611
1173,DakLak,652.0,M'Drak,2012,1245576933.146177,108.78612523642671,12.717154821570563
1174,DakLak,654.0,KrongPac,2012,627407441.1218387,108.34488295348758,12.689318028442623
1175,DakLak,655.0,KrongANa,2012,356519761.72281873,108.0440771520001,12.4903297247263
